iata_code,name,type,municipality,iso_country,latitude_deg,longitude_deg,route_count,inbound_route_count,type_score,major_score
DXB,Dubai International Airport,large_airport,Dubai,AE,25.24979,55.370992,188,182,2.0,5.5851234211214065
AUH,Zayed International Airport,large_airport,Abu Dhabi,AE,24.440966,54.649237,87,89,2.0,5.07659463159993
SHJ,Sharjah International Airport,large_airport,Sharjah,AE,25.3286,55.5172,78,78,2.0,4.996192813120243
DWC,Al Maktoum International Airport,large_airport,Dubai(Jebel Ali),AE,24.896171,55.16235,40,37,2.0,4.524739158032119
AZI,Al Bateen Executive Airport,large_airport,Abu Dhabi,AE,24.427062,54.459866,4,4,2.0,3.1036145685262397
AAN,Al Ain International Airport,large_airport,Al Ain,AE,24.2617,55.6092,2,2,2.0,2.7533341408009893
FJR,Fujairah International Airport,large_airport,Fujairah,AE,25.108411,56.328061,1,1,2.0,2.475300923812534
RKT,Ras Al Khaimah International Airport,large_airport,Ras Al Khaimah,AE,25.613501,55.938801,0,0,2.0,2.0
XSB,Sir Bani Yas Airport,medium_airport,Sir Bani Yas,AE,24.283611,52.580278,2,2,1.0,1.7533341408009897
DHF,Al Dhafra Air Base,medium_airport,,AE,24.248199462900004,54.5476989746,0,0,1.0,1.0
NHD,Al Minhad Air Base,medium_airport,Dubai,AE,25.0268001556,55.3661994934,0,0,1.0,1.0
ZDY,Delma Airport,small_airport,Delma Island,AE,24.51,52.3352,1,1,0.25,0.725300923812534
DST,Dubai Seaplane Terminal,seaplane_base,,AE,25.263,55.272,0,0,0.0,0.0
AYM,Yas Island Seaplane Base,seaplane_base,Abu Dhabi,AE,24.467,54.6103,0,0,0.0,0.0
KBL,Kabul International Airport,large_airport,Kabul,AF,34.565899,69.212303,15,13,2.0,3.8630518687859867
HEA,Herat - Khwaja Abdullah Ansari International Airport,large_airport,Guzara,AF,34.209999,62.228298,4,4,2.0,3.1036145685262397
KDH,Ahmad Shah Baba International Airport,large_airport,Kandahar,AF,31.505769,65.847963,4,4,2.0,3.1036145685262397
MZR,Mazar-i-Sharif International Airport,large_airport,Mazar-i-Sharif,AF,36.70412,67.210459,3,3,2.0,2.9506018476250677
OAI,Bagram Airfield,medium_airport,Bagram,AF,34.946098,69.264999,0,0,1.0,1.0
JAA,Jalalabad Airport,medium_airport,Jalalabad,AF,34.399799,70.498596,0,0,1.0,1.0
KHT,Khost International Airport,medium_airport,Khost,AF,33.284605,69.80734,0,0,1.0,1.0
MMZ,Maymana Zahiraddin Faryabi Airport,medium_airport,Maymana,AF,35.930801,64.760902,0,0,1.0,1.0
UND,Kunduz Airport,medium_airport,Kunduz,AF,36.6651,68.910797,0,0,1.0,1.0
BIN,Bamyan Airport,small_airport,Bamyan,AF,34.808916,67.816629,0,0,0.25,0.25
BST,Bost Airport,small_airport,Lashkar Gah,AF,31.5597,64.364998,0,0,0.25,0.25
CCN,Chaghcharan Airport,small_airport,Chaghcharan,AF,34.526465,65.27102,0,0,0.25,0.25
SBF,Sardeh Band Airport,small_airport,Sardeh Band,AF,33.3207015991,68.6364974976,0,0,0.25,0.25
DWR,Dwyer Airport,small_airport,Reg,AF,31.091265,64.066053,0,0,0.25,0.25
DAZ,Darwaz Airport,small_airport,Darwaz,AF,38.461798,70.881606,0,0,0.25,0.25
FAH,Farah Airport,small_airport,Farah,AF,32.366667,62.165347,0,0,0.25,0.25
FBD,Fayzabad Airport,small_airport,Fayzabad,AF,37.122148,70.5201,0,0,0.25,0.25
GZI,Ghazni Airport,small_airport,Ghazni,AF,33.487853,68.525243,0,0,0.25,0.25
GRG,Gardez Airport,small_airport,Gardez,AF,33.627366,69.237023,0,0,0.25,0.25
KWH,Khwahan Airport,small_airport,Khwahan,AF,37.890021,70.20383,0,0,0.25,0.25
URN,Urgun Airport,small_airport,Urgun,AF,32.931135,69.153167,0,0,0.25,0.25
LQN,Qala-i-Naw Airport,small_airport,Qala-i-Naw,AF,34.985472,63.117404,0,0,0.25,0.25
URZ,Orūzgān Airport,small_airport,Orūzgān,AF,32.9029998779,66.630897522,0,0,0.25,0.25
KUR,Razer Airport,small_airport,Skazar,AF,36.029893,70.714159,0,0,0.25,0.25
OAS,Sharana Airstrip,small_airport,Sharana,AF,33.12575,68.838517,0,0,0.25,0.25
OAH,Shindand Air Base,small_airport,Shindand,AF,33.3913,62.261002,0,0,0.25,0.25
OAA,Shank Air Base,small_airport,Baraki Barak,AF,33.922217,69.07794,0,0,0.25,0.25
OLR,Salerno Airport,small_airport,Khost,AF,33.3638,69.9561,0,0,0.25,0.25
SGA,Sheghnan Airport,small_airport,Shiveh,AF,37.497642,71.508484,0,0,0.25,0.25
TII,Tarinkot Airport,small_airport,Tarinkot,AF,32.604198,65.865799,0,0,0.25,0.25
TQN,Taleqan Airport,small_airport,Taleqan,AF,36.770699,69.531998,0,0,0.25,0.25
OAZ,Camp Shorabak Airfield,small_airport,Lashkar Gah,AF,31.848735,64.223175,0,0,0.25,0.25
ZAJ,Zaranj Airport,small_airport,Zaranj,AF,30.972222,61.865833,0,0,0.25,0.25
ANU,V. C. Bird International Airport,large_airport,Osbourn,AG,17.1367,-61.792702,22,22,2.0,4.150053176637131
BBQ,Burton-Nibbs International Airport,medium_airport,Codrington,AG,17.621194,-61.798347,0,0,1.0,1.0
AXA,Clayton J. Lloyd International Airport,medium_airport,The Valley,AI,18.204773,-63.05383,4,4,1.0,2.10361456852624
TIA,Tirana International Airport Mother Teresa,large_airport,Rinas,AL,41.4147,19.7206,18,18,2.0,4.0190438714284165
KFZ,Kukës International Airport,medium_airport,Kukës,AL,42.035802,20.415955,0,0,1.0,1.0
EVN,Zvartnots International Airport,large_airport,Yerevan,AM,40.148941,44.397887,33,33,2.0,4.418075788308225
LWN,Shirak International Airport,large_airport,Gyumri,AM,40.750401,43.859299,1,1,2.0,2.475300923812534
YUK,Syunik Airport,small_airport,Kapan,AM,39.202272,46.455204,0,0,0.25,0.25
LAD,Quatro de Fevereiro International Airport,large_airport,Luanda,AO,-8.85837,13.2312,36,36,2.0,4.476057997241754
VPE,Ngjiva Pereira Airport,medium_airport,Ngiva,AO,-17.0435009003,15.683799743700002,6,6,1.0,2.3343383879236432
NBJ,Dr. Antonio Agostinho Neto International Airport,large_airport,Luanda (Ícolo e Bengo),AO,-9.050734,13.499078,0,0,2.0,2.0
NOV,Albano Machado Airport,medium_airport,Huambo,AO,-12.8089,15.7605,3,3,1.0,1.950601847625068
SPP,Menongue Airport,medium_airport,Menongue,AO,-14.657600402832031,17.71980094909668,3,3,1.0,1.950601847625068
SDD,Lubango Mukanka International Airport,medium_airport,Lubango,AO,-14.924839,13.576653,3,3,1.0,1.950601847625068
CAB,Cabinda Airport,medium_airport,Cabinda,AO,-5.59839,12.188145,2,2,1.0,1.7533341408009897
CBT,Catumbela Airport,medium_airport,Catumbela,AO,-12.4792,13.4869,2,2,1.0,1.7533341408009897
SVP,Kuito Airport,medium_airport,Kuito,AO,-12.404600143433,16.947399139404,2,2,1.0,1.7533341408009897
MEG,Malanje Airport,medium_airport,Malanje,AO,-9.525090217590332,16.312400817871094,2,2,1.0,1.7533341408009897
VHC,Saurimo Airport,medium_airport,Saurimo,AO,-9.68907,20.4319,2,2,1.0,1.7533341408009897
SZA,Soyo Airport,medium_airport,Soyo,AO,-6.141089916229248,12.371800422668455,2,2,1.0,1.7533341408009897
SSY,Mbanza Congo Airport,medium_airport,Mbanza Congo,AO,-6.269899845123291,14.246999740600586,1,1,1.0,1.4753009238125339
MSZ,Welwitschia Mirabilis International Airport,medium_airport,Moçâmedes,AO,-15.2612,12.1468,1,1,1.0,1.4753009238125339
LUO,Luena Airport,medium_airport,Luena,AO,-11.7681,19.897699,1,1,1.0,1.4753009238125339
BUG,Benguela Airport,medium_airport,Benguela,AO,-12.609,13.4037,0,0,1.0,1.0
DUE,Dundo Airport,medium_airport,Chitato,AO,-7.400889873504639,20.818500518798828,0,0,1.0,1.0
GXG,Negage Airport,medium_airport,Negage,AO,-7.754509925842285,15.287699699401855,0,0,1.0,1.0
PBN,Porto Amboim Airport,medium_airport,Port Amboim,AO,-10.722,13.7655,0,0,1.0,1.0
NDD,Sumbe Airport,medium_airport,Sumbe,AO,-11.1679,13.8475,0,0,1.0,1.0
UGO,Uige Airport,medium_airport,Uige,AO,-7.60307,15.0278,0,0,1.0,1.0
XGN,Xangongo Airport,medium_airport,Xangongo,AO,-16.755399703979492,14.965299606323242,0,0,1.0,1.0
CTV,Catoca Airport,small_airport,Saurimo,AO,-9.431359,20.311557,0,0,0.25,0.25
ANL,Andulo Airport,small_airport,Andulo,AO,-11.4723,16.710899,0,0,0.25,0.25
CNZ,Cangamba Airport,small_airport,Cangamba,AO,-13.7106,19.861099,0,0,0.25,0.25
DRC,Dirico Airport,small_airport,Dirico,AO,-17.981924,20.768061,0,0,0.25,0.25
NDF,N'dalatando Airport,small_airport,N'dalatando,AO,-9.280378,14.982432,0,0,0.25,0.25
AZZ,Ambriz Airport,small_airport,Ambriz,AO,-7.86222,13.1161,0,0,0.25,0.25
GGC,Lumbala Airport,small_airport,Lumbala N'guimbo,AO,-14.105106,21.45083,0,0,0.25,0.25
CFF,Cafunfo Airport,small_airport,Cafunfo,AO,-8.78361,17.9897,0,0,0.25,0.25
PGI,Chitato Airport,small_airport,Chitato,AO,-7.35889,20.804701,0,0,0.25,0.25
KNP,Kapanda Airport,small_airport,Capanda,AO,-9.76937,15.455319,0,0,0.25,0.25
CTI,Cuito Cuanavale Airport,small_airport,Cuito Cuanavale,AO,-15.1603,19.156099,0,0,0.25,0.25
CXM,Camaxilo Airport,small_airport,Camaxilo,AO,-8.37361,18.923599,0,0,0.25,0.25
CAV,Cazombo Airport,small_airport,Cazombo,AO,-11.8931,22.916239,0,0,0.25,0.25
LLT,Lobito Airport,small_airport,Lobito,AO,-12.3712,13.5366,0,0,0.25,0.25
LBZ,Lucapa Airport,small_airport,Lucapa,AO,-8.442339,20.732701,0,0,0.25,0.25
LZM,Luzamba Airport,small_airport,Luzamba,AO,-9.11596012115,18.0492992401,0,0,0.25,0.25
UAL,Luau Airport,small_airport,Luau,AO,-10.7158,22.2311,0,0,0.25,0.25
CEO,Waco Kungo Airport,small_airport,Waco Kungo,AO,-11.4264,15.1014,0,0,0.25,0.25
ARZ,N'zeto Airport,small_airport,N'zeto,AO,-7.259277,12.862355,0,0,0.25,0.25
NZA,Nzagi Airport,small_airport,Nzagi,AO,-7.716939926149999,21.358200073200003,0,0,0.25,0.25
JMB,Jamba Airport,small_airport,Jamba,AO,-14.698193,16.070148,0,0,0.25,0.25
WFR,(Duplicate)Wolf's Fang Runway,medium_airport,Queen Maud Island,AQ,-71.5264,8.799459,0,0,1.0,1.0
UGL,Union Glacier Blue-Ice Runway,small_airport,Union Glacier,AQ,-79.777778,-83.320833,0,0,0.25,0.25
TNM,Teniente Rodolfo Marsh Martin Airport,small_airport,Villa Las Estrellas,AQ,-62.191026,-58.98669,0,0,0.25,0.25
AEP,Aeroparque Jorge Newbery,large_airport,Buenos Aires,AR,-34.559419,-58.415536,43,42,2.0,4.588304458051179
EZE,Ezeiza International Airport - Ministro Pistarini,large_airport,Buenos Aires (Ezeiza),AR,-34.8222,-58.5358,40,40,2.0,4.5464494171686685
COR,Ingeniero Aeronáutico Ambrosio L.V. Taravella International Airport,large_airport,Cordoba,AR,-31.312346,-64.208329,11,11,2.0,3.7039359884260574
MDZ,Governor Francisco Gabrielli International Airport,large_airport,Mendoza,AR,-32.831699,-68.7929,7,8,2.0,3.4595550673394255
BRC,Teniente Luis Candelaria International Airport,large_airport,San Carlos de Bariloche,AR,-41.151199,-71.157501,6,6,2.0,3.3343383879236432
ROS,Rosario Islas Malvinas International Airport,large_airport,Rosario,AR,-32.9036,-60.785,5,5,2.0,3.228635064613523
CRD,General Enrique Mosconi International Airport,large_airport,Comodoro Rivadavia,AR,-45.786941,-67.463355,4,6,2.0,3.199749493275158
RGL,Piloto Civil Norberto Fernández International Airport,large_airport,Rio Gallegos,AR,-51.608791,-69.308948,5,4,2.0,3.176543191243822
SLA,Martín Miguel de Güemes International Airport,large_airport,Salta,AR,-24.856001,-65.486198,4,4,2.0,3.1036145685262397
FTE,El Calafate - Commander Armando Tola International Airport,large_airport,El Calafate,AR,-50.281997,-72.053949,3,3,2.0,2.9506018476250677
NQN,Presidente Perón International Airport,large_airport,Neuquén,AR,-38.949001,-68.155701,3,3,2.0,2.9506018476250677
JUJ,Gobernador Horacio Guzman International Airport,large_airport,San Salvador de Jujuy,AR,-24.392799,-65.097801,2,2,2.0,2.7533341408009893
TUC,Teniente Benjamín Matienzo International Airport,large_airport,San Miguel de Tucumán,AR,-26.837397,-65.104195,1,1,2.0,2.475300923812534
RES,Resistencia International Airport,large_airport,Resistencia,AR,-27.44991,-59.056125,1,1,2.0,2.475300923812534
REL,Almirante Marco Andres Zar Airport,medium_airport,Rawson,AR,-43.2105,-65.2703,6,5,1.0,2.2902953365444265
USH,Ushuaia - Malvinas Argentinas International Airport,medium_airport,Ushuaia,AR,-54.8433,-68.2958,3,4,1.0,2.014357148000556
IGR,Cataratas Del Iguazú International Airport,medium_airport,Puerto Iguazu,AR,-25.737301,-54.4734,3,3,1.0,1.950601847625068
EQS,Esquel Brigadier Antonio Parodi International Airport,medium_airport,Esquel,AR,-42.908001,-71.139503,3,3,1.0,1.950601847625068
BHI,Comandante Espora Airport,medium_airport,Bahía Blanca,AR,-38.725,-62.1693,3,3,1.0,1.950601847625068
AFA,Suboficial Ay Santiago Germano Airport,medium_airport,San Rafael,AR,-34.588299,-68.4039,2,2,1.0,1.7533341408009897
RGA,Hermes Quijada International Airport,medium_airport,Rio Grande,AR,-53.7777,-67.7494,2,2,1.0,1.7533341408009897
MDQ,Ástor Piazzola International Airport,medium_airport,Mar del Plata,AR,-37.9342,-57.5733,2,2,1.0,1.7533341408009897
UAQ,Domingo Faustino Sarmiento Airport,medium_airport,San Juan,AR,-31.571501,-68.418198,2,1,1.0,1.6374869670557997
LUQ,Brigadier Mayor D Cesar Raul Ojeda Airport,medium_airport,San Luis,AR,-33.273201,-66.3564,1,2,1.0,1.5911480975577237
PRA,General Urquiza Airport,medium_airport,Parana,AR,-31.7948,-60.4804,1,1,1.0,1.4753009238125339
SFN,Sauce Viejo Airport,medium_airport,Santa Fe,AR,-31.7117,-60.8117,1,1,1.0,1.4753009238125339
CTC,Coronel Felipe Varela International Airport,medium_airport,Catamarca,AR,-28.593117,-65.7512,1,1,1.0,1.4753009238125339
SDE,Vicecomodoro Angel D. La Paz Aragonés Airport,medium_airport,Santiago del Estero,AR,-27.7655563354,-64.3099975586,1,1,1.0,1.4753009238125339
IRJ,Capitan V A Almonacid Airport,medium_airport,La Rioja,AR,-29.381599,-66.795799,1,1,1.0,1.4753009238125339
RHD,Termas de Río Hondo international Airport,medium_airport,Termas de Río Hondo,AR,-27.4966,-64.93595,1,1,1.0,1.4753009238125339
FMA,Formosa National Airport,medium_airport,Formosa,AR,-26.2127,-58.2281,1,1,1.0,1.4753009238125339
PSS,Libertador Gral D Jose De San Martin Airport,medium_airport,Posadas,AR,-27.3858,-55.9707,1,1,1.0,1.4753009238125339
VDM,Gobernador Castello Airport,medium_airport,Viedma / Carmen de Patagones,AR,-40.8692,-63.0004,1,1,1.0,1.4753009238125339
PMY,El Tehuelche Airport,medium_airport,Puerto Madryn,AR,-42.7592,-65.1027,1,1,1.0,1.4753009238125339
RSA,Santa Rosa Airport,medium_airport,Santa Rosa,AR,-36.588299,-64.275703,1,1,1.0,1.4753009238125339
CPC,Aviador C. Campos Airport,medium_airport,Chapelco/San Martin de los Andes,AR,-40.075401,-71.137299,1,1,1.0,1.4753009238125339
COC,Comodoro Pierrestegui Airport,medium_airport,Concordia,AR,-31.2969,-57.9966,0,0,1.0,1.0
GHU,Gualeguaychu Airport,medium_airport,Gualeguaychu,AR,-33.005567,-58.612833,0,0,1.0,1.0
LPG,La Plata Airport,medium_airport,La Plata,AR,-34.9722,-57.8947,0,0,1.0,1.0
EPA,El Palomar Airport,medium_airport,El Palomar,AR,-34.6099,-58.6126,0,0,1.0,1.0
RDS,Rincon De Los Sauces Airport,medium_airport,Rincon de los Sauces,AR,-37.390598,-68.904198,0,0,1.0,1.0
APZ,Zapala Airport,medium_airport,Zapala,AR,-38.975498,-70.113602,0,0,1.0,1.0
LGS,Comodoro D.R. Salomón Airport,medium_airport,Malargue,AR,-35.493599,-69.574303,0,0,1.0,1.0
RCU,Area De Material Airport,medium_airport,Rio Cuarto,AR,-33.085098,-64.261299,0,0,1.0,1.0
VDR,Villa Dolores Airport,medium_airport,Villa Dolores,AR,-31.9452,-65.146301,0,0,1.0,1.0
VME,Villa Reynolds Airport,medium_airport,Villa Mercedes,AR,-33.7299003601,-65.3873977661,0,0,1.0,1.0
CNQ,Corrientes Airport,medium_airport,Corrientes,AR,-27.4455,-58.7619,0,0,1.0,1.0
AOL,Paso De Los Libres Airport,medium_airport,Paso de los Libres,AR,-29.6894,-57.1521,0,0,1.0,1.0
MCS,Monte Caseros Airport,medium_airport,Monte Caseros,AR,-30.2719,-57.6402,0,0,1.0,1.0
ORA,Orán Airport,medium_airport,Orán,AR,-23.1528,-64.329201,0,0,1.0,1.0
TTG,General Enrique Mosconi Airport,medium_airport,Tartagal,AR,-22.616877,-63.793015,0,0,1.0,1.0
OYA,Goya Airport,medium_airport,Goya,AR,-29.1058,-59.2189,0,0,1.0,1.0
RCQ,Reconquista Airport,medium_airport,Reconquista,AR,-29.210278,-59.683333,0,0,1.0,1.0
UZU,Curuzu Cuatia Airport,medium_airport,Curuzu Cuatia,AR,-29.7706,-57.9789,0,0,1.0,1.0
EHL,El Bolsón Airfield,medium_airport,El Bolsón,AR,-41.943199,-71.532303,0,0,1.0,1.0
LHS,Las Heras Airport,medium_airport,Las Heras,AR,-46.538517,-68.965323,0,0,1.0,1.0
PUD,Puerto Deseado Airport,medium_airport,Puerto Deseado,AR,-47.7353,-65.9041,0,0,1.0,1.0
ULA,Capitan D Daniel Vazquez Airport,medium_airport,San Julian,AR,-49.306816,-67.802596,0,0,1.0,1.0
PMQ,Perito Moreno Jalil Hamer Airport,medium_airport,Perito Moreno,AR,-46.537899,-70.978699,0,0,1.0,1.0
RZA,Santa Cruz Airport,medium_airport,Puerto Santa Cruz,AR,-50.0165,-68.5792,0,0,1.0,1.0
GPO,General Pico Airport,medium_airport,General Pico,AR,-35.696201,-63.758301,0,0,1.0,1.0
OYO,Tres Arroyos Airport,medium_airport,Tres Arroyos,AR,-38.3869,-60.3297,0,0,1.0,1.0
SST,Santa Teresita Airport,medium_airport,Santa Teresita,AR,-36.5423,-56.7218,0,0,1.0,1.0
NEC,Necochea Airport,medium_airport,Necochea,AR,-38.490746,-58.816337,0,0,1.0,1.0
PEH,Comodoro Pedro Zanni Airport,medium_airport,Pehuajó,AR,-35.8446,-61.8576,0,0,1.0,1.0
TDL,Héroes de Malvinas Airport,medium_airport,Tandil,AR,-37.234634,-59.228647,0,0,1.0,1.0
VLG,Villa Gesell Airport,medium_airport,Villa Gesell,AR,-37.2354,-57.0292,0,0,1.0,1.0
CUT,Cutral-Co Airport,medium_airport,Cutral-Co,AR,-38.939701,-69.264603,0,0,1.0,1.0
QRF,Bragado Airport,small_airport,Bragado,AR,-35.145811,-60.480294,0,0,0.25,0.25
CVI,Caleta Olivia Airport,small_airport,Caleta Olivia,AR,-46.37428,-67.59409,0,0,0.25,0.25
CNT,Charata Airport,small_airport,Charata,AR,-27.2164,-61.2103,0,0,0.25,0.25
VGS,General Villegas Airport,small_airport,General Villegas,AR,-34.995728,-62.999725,0,0,0.25,0.25
LMD,Los Menucos Airport,small_airport,Los Menucos,AR,-40.817699,-68.074699,0,0,0.25,0.25
VCF,Valcheta Airport,small_airport,Valcheta,AR,-40.700001,-66.150002,0,0,0.25,0.25
CPG,Carmen de Patagones Airport,small_airport,Carmen de Patagones,AR,-40.7781,-62.9803,0,0,0.25,0.25
LCP,Loncopue Airport,small_airport,Loncopue,AR,-38.081902,-70.643898,0,0,0.25,0.25
MJR,Miramar Airport,small_airport,Miramar,AR,-38.2271,-57.8697,0,0,0.25,0.25
LCM,La Cumbre Airport,small_airport,La Cumbre,AR,-31.0058,-64.531898,0,0,0.25,0.25
RAF,Rafaela Airport,small_airport,Rafaela,AR,-31.2825,-61.5017,0,0,0.25,0.25
NCJ,Sunchales Aeroclub Airport,small_airport,Sunchales,AR,-30.9575,-61.5283,0,0,0.25,0.25
HOS,Chos Malal Airport,small_airport,Chos Malal,AR,-37.444698,-70.222504,0,0,0.25,0.25
CVH,Caviahue Airport,small_airport,Lafontaine,AR,-37.851398,-71.009201,0,0,0.25,0.25
GNR,Dr. Arturo H. Illia Airport,small_airport,General Roca,AR,-39.000702,-67.620499,0,0,0.25,0.25
CRR,Ceres Airport,small_airport,Ceres,AR,-29.872292,-61.927925,0,0,0.25,0.25
RLO,Valle Del Conlara International Airport,small_airport,Merlo,AR,-32.384701,-65.186501,0,0,0.25,0.25
PRQ,Termal Airport,small_airport,Presidencia Roque Sáenz Peña,AR,-26.753611,-60.492222,0,0,0.25,0.25
CLX,Aeródromo de Clorinda,small_airport,Clorinda,AR,-25.3036,-57.7344,0,0,0.25,0.25
ELO,El Dorado Airport,small_airport,El Dorado,AR,-26.397499,-54.574699,0,0,0.25,0.25
LLS,Alferez Armando Rodriguez Airport,small_airport,Las Lomitas,AR,-24.721399,-60.548801,0,0,0.25,0.25
MDX,Mercedes Airport,small_airport,Mercedes,AR,-29.221399,-58.087799,0,0,0.25,0.25
EMX,El Maitén Airport,small_airport,El Maitén,AR,-42.029202,-71.172501,0,0,0.25,0.25
IGB,Ingeniero Jacobacci - Captain H R Bordón Airport,small_airport,Ingeniero Jacobacci,AR,-41.3209,-69.574898,0,0,0.25,0.25
OLN,Lago Musters Airport,small_airport,Sarmiento,AR,-45.5752,-69.077,0,0,0.25,0.25
OES,Antoine de Saint Exupéry Airport,small_airport,San Antonio Oeste,AR,-40.7512,-65.0343,0,0,0.25,0.25
MQD,Maquinchao Airport,small_airport,Maquinchao,AR,-41.2430992126,-68.7078018188,0,0,0.25,0.25
ARR,D. Casimiro Szlapelis Airport,small_airport,Alto Rio Senguerr,AR,-45.013599,-70.812202,0,0,0.25,0.25
SGV,Sierra Grande Airport,small_airport,Sierra Grande,AR,-41.591702,-65.339401,0,0,0.25,0.25
ROY,Rio Mayo Airport,small_airport,Rio Mayo,AR,-45.703899,-70.245598,0,0,0.25,0.25
GGS,Gobernador Gregores Airport,small_airport,Gobernador Gregores,AR,-48.7831,-70.150002,0,0,0.25,0.25
JSM,Jose De San Martin Airport,small_airport,Chubut,AR,-44.0485992432,-70.4589004517,0,0,0.25,0.25
RYO,28 de Noviembre Airport,small_airport,Rio Turbio,AR,-51.605,-72.2203,0,0,0.25,0.25
CSZ,Brigadier D.H.E. Ruiz Airport,small_airport,Coronel Suarez,AR,-37.446098,-61.889301,0,0,0.25,0.25
OVR,Olavarria Airport,small_airport,Olavarria,AR,-36.889999,-60.216599,0,0,0.25,0.25
PPG,Pago Pago International Airport,large_airport,Pago Pago,AS,-14.331,-170.710007,1,1,2.0,2.475300923812534
OFU,Ofu Airport,small_airport,Ofu,AS,-14.1844,-169.669998,0,0,0.25,0.25
FTI,Fitiuta Airport,small_airport,Fitiuta Village,AS,-14.216131,-169.423771,0,0,0.25,0.25
VIE,Vienna International Airport,large_airport,Vienna,AT,48.110298,16.5697,137,138,2.0,5.380751169243079
SZG,Salzburg Airport,large_airport,Salzburg,AT,47.793301,13.0043,19,20,2.0,4.06815646305686
GRZ,Graz Airport,large_airport,Feldkirchen bei Graz,AT,46.9911,15.4396,11,11,2.0,3.7039359884260574
LNZ,Linz-Hörsching Airport,large_airport,Linz,AT,48.235362,14.188128,8,7,2.0,3.4730159857001555
INN,Innsbruck Airport,large_airport,Innsbruck,AT,47.260201,11.344,6,6,2.0,3.3343383879236432
KLU,Klagenfurt Airport,large_airport,Klagenfurt am Wörthersee,AT,46.642502,14.3377,4,4,2.0,3.1036145685262397
HOH,Hohenems-Dornbirn Airfield,small_airport,Hohenems,AT,47.384477,9.699776,0,0,0.25,0.25
ANT,Sankt Anton am Arlberg Heliport,heliport,Sankt Anton am Arlberg,AT,47.119621,10.240524,0,0,0.0,0.0
SYD,Sydney Kingsford Smith International Airport,large_airport,Sydney (Mascot),AU,-33.946098,151.177002,85,83,2.0,5.047686575313778
BNE,Brisbane International Airport,large_airport,Brisbane,AU,-27.38419914245605,153.11700439453125,60,56,2.0,4.799507050764911
MEL,Melbourne Airport,large_airport,Melbourne,AU,-37.670732,144.837898,55,54,2.0,4.755093014931909
PER,Perth International Airport,large_airport,Perth,AU,-31.94029998779297,115.96700286865234,38,38,2.0,4.512156557346043
CNS,Cairns International Airport,large_airport,Cairns,AU,-16.878921,145.74948,30,29,2.0,4.3453655622689595
ADL,Adelaide International Airport,large_airport,Adelaide,AU,-34.947512,138.533393,26,26,2.0,4.260002422402969
DRW,Darwin International Airport / RAAF Darwin,large_airport,Darwin,AU,-12.41497,130.88185,20,20,2.0,4.0876725287246325
OOL,Gold Coast Airport,large_airport,Gold Coast,AU,-28.165962,153.506641,13,13,2.0,3.809639311736177
BME,Broome International Airport,large_airport,Broome,AU,-17.949194,122.2283,8,7,2.0,3.4730159857001555
PHE,Port Hedland International Airport,large_airport,Port Hedland,AU,-20.382787,118.629789,5,6,2.0,3.27267811599274
NTL,Newcastle Airport,large_airport,Williamtown,AU,-32.796114,151.835025,5,5,2.0,3.228635064613523
HBA,Hobart International Airport,large_airport,Hobart (Cambridge),AU,-42.837032,147.513022,3,3,2.0,2.9506018476250677
MCY,Sunshine Coast Airport,large_airport,Maroochydore,AU,-26.593324,153.08319,2,2,2.0,2.7533341408009893
TSV,Townsville Airport / RAAF Base Townsville,medium_airport,Townsville,AU,-19.252904,146.766512,10,10,1.0,2.644271044204597
ISA,Mount Isa Airport,medium_airport,Mount Isa,AU,-20.66638,139.488468,9,9,1.0,2.5789154923387745
ASP,Alice Springs Airport,medium_airport,Alice Springs,AU,-23.806588,133.903427,8,8,1.0,2.5066682816019794
AVV,Melbourne Avalon International Airport,large_airport,Geelong/Melbourne,AU,-38.040269,144.467196,1,1,2.0,2.475300923812534
CBR,Canberra Airport,medium_airport,Canberra,AU,-35.3069,149.195007,6,6,1.0,2.3343383879236432
MKY,Mackay Airport,medium_airport,Mackay,AU,-21.170816,149.182588,5,5,1.0,2.228635064613523
LST,Launceston Airport,medium_airport,Launceston (Western Junction),AU,-41.544935,147.210785,5,5,1.0,2.228635064613523
KTA,Karratha Airport,medium_airport,Karratha,AU,-20.712200164799995,116.773002625,5,5,1.0,2.228635064613523
CTL,Charleville Airport,medium_airport,Charleville,AU,-26.4132995605,146.261993408,4,4,1.0,2.10361456852624
BHQ,Broken Hill Airport,medium_airport,Broken Hill,AU,-32.0013999939,141.472000122,4,4,1.0,2.10361456852624
HTI,Hamilton Island Airport,medium_airport,Hamilton Island,AU,-20.3581008911,148.95199585,4,4,1.0,2.10361456852624
MQL,Mildura Airport,medium_airport,Mildura,AU,-34.229198455799995,142.085998535,4,4,1.0,2.10361456852624
WTB,Toowoomba Wellcamp Airport,large_airport,Toowoomba,AU,-27.558332,151.793335,0,0,2.0,2.0
AYQ,Ayers Rock Connellan Airport,medium_airport,Yulara,AU,-25.185913,130.97703,3,3,1.0,1.950601847625068
BNK,Ballina Byron Gateway Airport,medium_airport,Ballina,AU,-28.833236,153.561471,3,3,1.0,1.950601847625068
ROK,Rockhampton Airport,medium_airport,Rockhampton,AU,-23.380019,150.475359,3,3,1.0,1.950601847625068
CNJ,Cloncurry Airport,medium_airport,Cloncurry,AU,-20.6686000824,140.503997803,3,3,1.0,1.950601847625068
GLT,Gladstone Airport,medium_airport,Gladstone,AU,-23.869763,151.225439,3,3,1.0,1.950601847625068
GTE,Groote Eylandt Airport,medium_airport,Groote Eylandt,AU,-13.972405,136.458553,3,3,1.0,1.950601847625068
MIM,Merimbula Airport,medium_airport,Merimbula,AU,-36.9085998535,149.901000977,3,3,1.0,1.950601847625068
MNG,Maningrida Airport,medium_airport,Maningrida,AU,-12.0560998917,134.23399353,3,3,1.0,1.950601847625068
GOV,Gove Airport,medium_airport,Nhulunbuy,AU,-12.269399642899998,136.817993164,3,3,1.0,1.950601847625068
KGI,Kalgoorlie Boulder Airport,medium_airport,Broadwood,AU,-30.791543,121.464586,3,3,1.0,1.950601847625068
KNX,East Kimberley Regional (Kununurra) Airport,medium_airport,Kununurra,AU,-15.7781,128.707993,3,3,1.0,1.950601847625068
PQQ,Port Macquarie Airport,medium_airport,Port Macquarie,AU,-31.4358005524,152.863006592,3,3,1.0,1.950601847625068
BWT,Wynyard Airport,medium_airport,Burnie,AU,-40.997039,145.726,3,3,1.0,1.950601847625068
LRE,Longreach Airport,medium_airport,Longreach,AU,-23.4342,144.279999,2,4,1.0,1.899284319019844
ALH,Albany Airport,medium_airport,Albany,AU,-34.943333,117.808889,2,2,1.0,1.7533341408009897
BVI,Birdsville Airport,medium_airport,,AU,-25.897499084472656,139.34800720214844,2,2,1.0,1.7533341408009897
BEU,Bedourie Airport,medium_airport,Bedourie,AU,-24.3461,139.460007,2,2,1.0,1.7533341408009897
BQL,Boulia Airport,medium_airport,,AU,-22.913299560546875,139.89999389648438,2,2,1.0,1.7533341408009897
PPP,Proserpine Whitsunday Coast Airport,medium_airport,Proserpine,AU,-20.494416,148.553583,2,2,1.0,1.7533341408009897
BHS,Bathurst Airport,medium_airport,Bathurst,AU,-33.406817,149.651161,2,2,1.0,1.7533341408009897
CFS,Coffs Harbour Airport,medium_airport,Coffs Harbour,AU,-30.320601,153.115997,2,2,1.0,1.7533341408009897
CMA,Cunnamulla Airport,medium_airport,,AU,-28.030000686645508,145.6219940185547,2,2,1.0,1.7533341408009897
GFF,Griffith Airport,medium_airport,Griffith,AU,-34.2508010864,146.067001343,2,2,1.0,1.7533341408009897
HVB,Hervey Bay Airport,medium_airport,Hervey Bay,AU,-25.320127,152.880662,2,2,1.0,1.7533341408009897
KNS,King Island Airport,medium_airport,,AU,-39.87749862670898,143.8780059814453,2,2,1.0,1.7533341408009897
KWM,Kowanyama Airport,medium_airport,Kowanyama,AU,-15.485369,141.752572,2,2,1.0,1.7533341408009897
IRG,Lockhart River Airport,medium_airport,Lockhart River,AU,-12.7869,143.304993,2,2,1.0,1.7533341408009897
ABX,Albury Airport,medium_airport,East Albury,AU,-36.066758,146.959148,2,2,1.0,1.7533341408009897
MOV,Moranbah Airport,medium_airport,Moranbah,AU,-22.057800293,148.07699585,2,2,1.0,1.7533341408009897
MYA,Moruya Airport,medium_airport,Moruya,AU,-35.8978004456,150.143997192,2,2,1.0,1.7533341408009897
MGB,Mount Gambier Airport,medium_airport,Mount Gambier,AU,-37.744382,140.780561,2,2,1.0,1.7533341408009897
NRA,Narrandera Airport,medium_airport,Narrandera,AU,-34.7022018433,146.511993408,2,2,1.0,1.7533341408009897
NTN,Normanton Airport,medium_airport,Normanton,AU,-17.68409,141.069664,2,2,1.0,1.7533341408009897
PKE,Parkes Airport,medium_airport,Parkes,AU,-33.131401062,148.238998413,2,2,1.0,1.7533341408009897
ULP,Quilpie Airport,medium_airport,,AU,-26.609176,144.253746,2,2,1.0,1.7533341408009897
RMA,Roma Airport,medium_airport,Roma,AU,-26.545000076300003,148.774993896,2,2,1.0,1.7533341408009897
DBO,Dubbo City Regional Airport,medium_airport,Dubbo,AU,-32.2167015076,148.574996948,2,2,1.0,1.7533341408009897
WGA,Wagga Wagga Airport,medium_airport,Forest Hill,AU,-35.163484,147.46832,2,2,1.0,1.7533341408009897
TRO,Taree Airport,medium_airport,Taree,AU,-31.888599,152.514008,2,2,1.0,1.7533341408009897
WNR,Windorah Airport,medium_airport,Windorah,AU,-25.410641,142.668428,2,2,1.0,1.7533341408009897
WIN,Winton Airport,medium_airport,,AU,-22.36359977722168,143.08599853515625,2,2,1.0,1.7533341408009897
EPR,Esperance Airport,medium_airport,Esperance,AU,-33.684399,121.822998,2,1,1.0,1.6374869670557997
CUQ,Coen Airport,medium_airport,Coen,AU,-13.761133,143.113311,1,2,1.0,1.5911480975577237
ARM,Armidale Airport,medium_airport,Armidale,AU,-30.5280990601,151.617004395,1,1,1.0,1.4753009238125339
BCI,Barcaldine Airport,medium_airport,Barcaldine,AU,-23.566268,145.302086,1,1,1.0,1.4753009238125339
BKQ,Blackall Airport,medium_airport,Blackall,AU,-24.431678,145.429716,1,1,1.0,1.4753009238125339
BDB,Bundaberg Airport,medium_airport,Bundaberg,AU,-24.905039,152.322612,1,1,1.0,1.4753009238125339
WEI,Weipa Airport,medium_airport,Weipa,AU,-12.677493,141.922618,1,1,1.0,1.4753009238125339
CPD,Coober Pedy Airport,medium_airport,Coober Pedy,AU,-29.038312,134.722166,1,1,1.0,1.4753009238125339
CED,Ceduna Airport,medium_airport,,AU,-32.13059997558594,133.7100067138672,1,1,1.0,1.4753009238125339
DCN,RAAF Base Curtin,medium_airport,Derby,AU,-17.581389,123.828333,1,1,1.0,1.4753009238125339
DPO,Devonport Airport,medium_airport,Devonport,AU,-41.1697006226,146.429992676,1,1,1.0,1.4753009238125339
ELC,Elcho Island Airport,medium_airport,Elcho Island,AU,-12.019399642899998,135.570999146,1,1,1.0,1.4753009238125339
EMD,Emerald Airport,medium_airport,Emerald,AU,-23.5674991608,148.179000854,1,1,1.0,1.4753009238125339
GET,Geraldton Airport,medium_airport,Moonyoonooka,AU,-28.796101,114.707001,1,1,1.0,1.4753009238125339
GFN,Clarence Valley Regional Airport,medium_airport,Grafton,AU,-29.754795,153.031234,1,1,1.0,1.4753009238125339
HID,Horn Island Airport,medium_airport,Horn,AU,-10.585636,142.29277,1,1,1.0,1.4753009238125339
KGC,Kingscote Airport,medium_airport,,AU,-35.71390151977539,137.52099609375,1,1,1.0,1.4753009238125339
LSY,Lismore Airport,medium_airport,Lismore,AU,-28.830689,153.258419,1,1,1.0,1.4753009238125339
MEB,Melbourne Essendon Airport,medium_airport,Essendon Fields,AU,-37.7281,144.901993,1,1,1.0,1.4753009238125339
MRZ,Moree Airport,medium_airport,Moree,AU,-29.4988994598,149.845001221,1,1,1.0,1.4753009238125339
ZNE,Newman Airport,medium_airport,Newman,AU,-23.4178009033,119.803001404,1,1,1.0,1.4753009238125339
OAG,Orange Airport,medium_airport,Orange,AU,-33.382014,149.131262,1,1,1.0,1.4753009238125339
PUG,Port Augusta Airport,medium_airport,,AU,-32.50690078735352,137.7169952392578,1,1,1.0,1.4753009238125339
PBO,Paraburdoo Airport,medium_airport,Paraburdoo,AU,-23.1711006165,117.745002747,1,1,1.0,1.4753009238125339
PLO,Port Lincoln Airport,medium_airport,Port Lincoln,AU,-34.6053009033,135.880004883,1,1,1.0,1.4753009238125339
LEA,Learmonth Airport,medium_airport,Exmouth,AU,-22.235201,114.090024,1,1,1.0,1.4753009238125339
TMW,Tamworth Airport,medium_airport,Tamworth,AU,-31.077898,150.845484,1,1,1.0,1.4753009238125339
XTG,Thargomindah Airport,medium_airport,Thargomindah,AU,-27.986368,143.812065,1,1,1.0,1.4753009238125339
WYA,Whyalla Airport,medium_airport,Whyalla,AU,-33.05889892578125,137.51400756835938,1,1,1.0,1.4753009238125339
TWB,Toowoomba Airport,small_airport,Toowoomba,AU,-27.543365,151.919112,4,4,0.25,1.3536145685262402
PTJ,Portland Airport,medium_airport,,AU,-38.31809997558594,141.4709930419922,1,0,1.0,1.2772588722239782
DMD,Doomadgee Airport,small_airport,,AU,-17.9403,138.822006,3,3,0.25,1.2006018476250677
LDH,Lord Howe Island Airport,small_airport,Lord Howe Island,AU,-31.538204,159.07546,3,3,0.25,1.2006018476250677
ONG,Mornington Island Airport,small_airport,,AU,-16.662500381469727,139.17799377441406,3,3,0.25,1.2006018476250677
AUU,Aurukun Airport,small_airport,Aurukun,AU,-13.354019,141.720028,2,2,0.25,1.0033341408009897
BUC,Burketown Airport,small_airport,,AU,-17.748600006103516,139.53399658203125,2,2,0.25,1.0033341408009897
BQB,Busselton Margaret River Regional Airport,small_airport,Busselton,AU,-33.687222,115.400278,2,2,0.25,1.0033341408009897
JCK,Julia Creek Airport,small_airport,,AU,-20.66830062866211,141.72300720214844,2,2,0.25,1.0033341408009897
EDR,Pormpuraaw Airport,small_airport,Pormpuraaw,AU,-14.896451,141.60908,2,2,0.25,1.0033341408009897
SGO,St George Airport,small_airport,,AU,-28.049699783325195,148.59500122070312,2,2,0.25,1.0033341408009897
ARY,Ararat Airport,medium_airport,Ararat,AU,-37.309978,142.988688,0,0,1.0,1.0
BRK,Bourke Airport,medium_airport,,AU,-30.03919982910156,145.95199584960938,0,0,1.0,1.0
BLN,Benalla Airport,medium_airport,Benalla,AU,-36.551899,146.007004,0,0,1.0,1.0
BSJ,Bairnsdale Airport,medium_airport,Bairnsdale,AU,-37.887539,147.569379,0,0,1.0,1.0
OKY,Oakey Army Aviation Centre,medium_airport,,AU,-27.409262,151.736727,0,0,1.0,1.0
BZD,Balranald Airport,medium_airport,,AU,-34.624834,143.577114,0,0,1.0,1.0
BWQ,Brewarrina Airport,medium_airport,,AU,-29.975792,146.81438,0,0,1.0,1.0
BRT,Bathurst Island Airport,medium_airport,Wurrumiyanga,AU,-11.764966,130.615774,0,0,1.0,1.0
BLT,Blackwater Airport,medium_airport,,AU,-23.6031,148.807007,0,0,1.0,1.0
CVQ,Carnarvon Airport,medium_airport,Carnarvon,AU,-24.884337,113.666393,0,0,1.0,1.0
CAZ,Cobar Airport,medium_airport,,AU,-31.538299560546875,145.79400634765625,0,0,1.0,1.0
COJ,Coonabarabran Airport,medium_airport,,AU,-31.3325,149.266998,0,0,1.0,1.0
CCL,Chinchilla Airport,medium_airport,Chinchilla,AU,-26.771947,150.617571,0,0,1.0,1.0
CVC,Cleve Airport,medium_airport,,AU,-33.709702,136.505005,0,0,1.0,1.0
CTN,Cooktown Airport,medium_airport,,AU,-15.443649,145.183221,0,0,1.0,1.0
CMQ,Clermont Airport,medium_airport,,AU,-22.7731,147.621002,0,0,1.0,1.0
CNB,Coonamble Airport,medium_airport,,AU,-30.980946,148.377833,0,0,1.0,1.0
OOM,Cooma Snowy Mountains Airport,medium_airport,Cooma,AU,-36.300445,148.972408,0,0,1.0,1.0
CWW,Corowa Airport,medium_airport,,AU,-35.994701,146.356995,0,0,1.0,1.0
CYG,Corryong Airport,medium_airport,,AU,-36.18280029296875,147.88800048828125,0,0,1.0,1.0
CMD,Cootamundra Airport,medium_airport,,AU,-34.624283,148.036641,0,0,1.0,1.0
CWT,Cowra Airport,medium_airport,,AU,-33.846894,148.648007,0,0,1.0,1.0
DRN,Dirranbandi Airport,medium_airport,,AU,-28.587912,148.217161,0,0,1.0,1.0
DRB,Derby Airport,medium_airport,Derby,AU,-17.37193,123.66221,0,0,1.0,1.0
DNQ,Deniliquin Airport,medium_airport,Deniliquin,AU,-35.5593986511,144.945999146,0,0,1.0,1.0
DYA,Dysart Airport,medium_airport,,AU,-22.6222,148.363998,0,0,1.0,1.0
ECH,Echuca Airport,medium_airport,,AU,-36.15719985961914,144.76199340820312,0,0,1.0,1.0
WHB,Eliwana,medium_airport,,AU,-22.428395,116.887879,0,0,1.0,1.0
FRB,Forbes Airport,medium_airport,Forbes,AU,-33.363602,147.934998,0,0,1.0,1.0
FOS,Forrest Airport,medium_airport,,AU,-30.83662,128.112811,0,0,1.0,1.0
FIZ,Fitzroy Crossing Airport,medium_airport,,AU,-18.183596,125.559783,0,0,1.0,1.0
GUH,Gunnedah Airport,medium_airport,,AU,-30.957511,150.248981,0,0,1.0,1.0
GUL,Goulburn Airport,medium_airport,,AU,-34.810298919677734,149.7259979248047,0,0,1.0,1.0
GLI,Glen Innes Airport,medium_airport,Glen Innes,AU,-29.676029,151.691156,0,0,1.0,1.0
GPN,Garden Point Airport,medium_airport,Pirlangimpi,AU,-11.399686,130.425568,0,0,1.0,1.0
HXX,Hay Airport,medium_airport,,AU,-34.531399,144.830002,0,0,1.0,1.0
HCQ,Halls Creek Airport,medium_airport,,AU,-18.2339,127.669998,0,0,1.0,1.0
HLT,Hamilton Airport,medium_airport,,AU,-37.64889907836914,142.06500244140625,0,0,1.0,1.0
MHU,Mount Hotham Airport,medium_airport,Mount Hotham,AU,-37.0475006104,147.333999634,0,0,1.0,1.0
HTU,Hopetoun Airport,medium_airport,,AU,-35.715302,142.360001,0,0,1.0,1.0
HSM,Horsham Airport,medium_airport,,AU,-36.669700622558594,142.17300415039062,0,0,1.0,1.0
IVR,Inverell Airport,medium_airport,Inverell,AU,-29.888299942,151.143997192,0,0,1.0,1.0
KRA,Kerang Airport,medium_airport,,AU,-35.751399993896484,143.93899536132812,0,0,1.0,1.0
KPS,Kempsey Airport,medium_airport,,AU,-31.07232,152.765313,0,0,1.0,1.0
KGY,Kingaroy Airport,medium_airport,,AU,-26.581077,151.839927,0,0,1.0,1.0
LGH,Leigh Creek Airport,medium_airport,,AU,-30.598301,138.425995,0,0,1.0,1.0
LNO,Leonora Airport,medium_airport,Leonora,AU,-28.87809944152832,121.31500244140624,0,0,1.0,1.0
LHG,Lightning Ridge Airport,medium_airport,,AU,-29.452857,147.977146,0,0,1.0,1.0
LER,Leinster Airport,medium_airport,,AU,-27.843299865722656,120.7030029296875,0,0,1.0,1.0
TGN,Latrobe Valley Airport,medium_airport,Morwell,AU,-38.211004,146.470817,0,0,1.0,1.0
MRG,Mareeba Airport,medium_airport,Mareeba,AU,-17.070277,145.424228,0,0,1.0,1.0
DGE,Mudgee Airport,medium_airport,Mudgee,AU,-32.564794,149.609452,0,0,1.0,1.0
MKR,Meekatharra Airport,medium_airport,,AU,-26.6117000579834,118.5479965209961,0,0,1.0,1.0
MBW,Melbourne Moorabbin Airport,medium_airport,Melbourne,AU,-37.977765,145.099799,0,0,1.0,1.0
WME,Mount Keith Airport,medium_airport,,AU,-27.28733,120.554937,0,0,1.0,1.0
MMG,Mount Magnet Airport,medium_airport,,AU,-28.116100311279297,117.84200286865234,0,0,1.0,1.0
RRE,Marree Airport,medium_airport,,AU,-29.6633,138.065002,0,0,1.0,1.0
NAA,Narrabri Airport,medium_airport,Narrabri,AU,-30.3192005157,149.82699585,0,0,1.0,1.0
RPM,Ngukurr Airport,medium_airport,,AU,-14.7228,134.746994,0,0,1.0,1.0
QRM,Narromine Airport,medium_airport,,AU,-32.214699,148.225006,0,0,1.0,1.0
PPI,Port Pirie Airport,medium_airport,,AU,-33.238899,137.994995,0,0,1.0,1.0
JAD,Perth Jandakot Airport,medium_airport,Perth,AU,-32.09749984741211,115.88099670410156,0,0,1.0,1.0
PKT,Port Keats Airport,medium_airport,Wadeye,AU,-14.249701,129.529538,0,0,1.0,1.0
KTR,Tindal Airport,medium_airport,,AU,-14.521100044250488,132.3780059814453,0,0,1.0,1.0
RMK,Renmark Airport,medium_airport,,AU,-34.1964,140.673996,0,0,1.0,1.0
BWU,Sydney Bankstown Airport,medium_airport,Sydney,AU,-33.923618,150.990792,0,0,1.0,1.0
CDU,Camden Airport,medium_airport,Cobbitty,AU,-34.038338,150.686406,0,0,1.0,1.0
MJK,Shark Bay Airport,medium_airport,Denham,AU,-25.897294,113.575802,0,0,1.0,1.0
WOL,Shellharbour Airport,medium_airport,Albion Park Rail,AU,-34.5611,150.789001,0,0,1.0,1.0
SHT,Shepparton Airport,medium_airport,,AU,-36.428341,145.391473,0,0,1.0,1.0
SIO,Smithton Airport,medium_airport,,AU,-40.834999084472656,145.08399963378906,0,0,1.0,1.0
SNB,Snake Bay Airport,medium_airport,Milikapiti,AU,-11.417674,130.648481,0,0,1.0,1.0
NOA,Naval Air Station Nowra - HMAS Albatross,medium_airport,Nowra Hill,AU,-34.9466,150.542451,0,0,1.0,1.0
XRH,RAAF Base Richmond,medium_airport,Richmond,AU,-33.604652,150.783051,0,0,1.0,1.0
SWH,Swan Hill Airport,medium_airport,,AU,-35.37580108642578,143.5330047607422,0,0,1.0,1.0
SWC,Stawell Airport,medium_airport,,AU,-37.07170104980469,142.74099731445312,0,0,1.0,1.0
TEF,Telfer Airport,medium_airport,,AU,-21.715,122.228996,0,0,1.0,1.0
TEM,Temora Airport,medium_airport,Temora,AU,-34.421398,147.511993,0,0,1.0,1.0
TYB,Tibooburra Airport,medium_airport,,AU,-29.451099,142.057999,0,0,1.0,1.0
TUM,Tumut Aerodrome,medium_airport,Tumut,AU,-35.26832,148.240526,0,0,1.0,1.0
THG,Thangool Airport,medium_airport,Biloela,AU,-24.494863,150.577967,0,0,1.0,1.0
TCA,Tennant Creek Airport,medium_airport,Tennant Creek,AU,-19.6343994140625,134.18299865722656,0,0,1.0,1.0
WGT,Wangaratta Airport,medium_airport,Laceby,AU,-36.417914,146.306896,0,0,1.0,1.0
WKB,Warracknabeal Airport,medium_airport,,AU,-36.32109832763672,142.41900634765625,0,0,1.0,1.0
WGE,Walgett Airport,medium_airport,,AU,-30.032801,148.126007,0,0,1.0,1.0
WUN,Wiluna Airport,medium_airport,,AU,-26.629199981689453,120.22100067138672,0,0,1.0,1.0
SXE,West Sale Airport,medium_airport,Sale,AU,-38.090827,146.965335,0,0,1.0,1.0
WWY,West Wyalong Airport,medium_airport,West Wyalong,AU,-33.9371986389,147.190994263,0,0,1.0,1.0
NGA,Young Airport,medium_airport,,AU,-34.255576,148.247118,0,0,1.0,1.0
FLS,Flinders Island Airport,small_airport,Whitemark,AU,-40.091702,147.992996,1,2,0.25,0.8411480975577238
RVT,Ravensthorpe Airport,small_airport,,AU,-33.7971992493,120.208000183,1,2,0.25,0.8411480975577238
ZBL,Biloela Airport,small_airport,Biloela,AU,-24.320816,150.509627,1,1,0.25,0.725300923812534
MGT,Milingimbi Airport,small_airport,Milingimbi Island,AU,-12.0944004059,134.893997192,1,1,0.25,0.725300923812534
MCV,McArthur River Mine Airport,small_airport,McArthur River Mine,AU,-16.4424991608,136.083999634,1,1,0.25,0.725300923812534
ABM,Northern Peninsula Airport,small_airport,Bamaga,AU,-10.946194,142.455081,1,1,0.25,0.725300923812534
OLP,Olympic Dam Airport,small_airport,Olympic Dam,AU,-30.483861,136.876699,1,1,0.25,0.725300923812534
RCM,Richmond Airport,small_airport,,AU,-20.70190048217773,143.11500549316406,1,1,0.25,0.725300923812534
ANZ,Angus Downs Airport,small_airport,Angus Downs Station,AU,-25.0325,132.2748,0,0,0.25,0.25
LYT,Lady Elliot Island Airstrip,small_airport,Lady Elliot Island,AU,-24.1129,152.7156,0,0,0.25,0.25
GYZ,Gruyere Airport,small_airport,Cosmo Newbery,AU,-28.034548,123.81506,0,0,0.25,0.25
AGW,Agnew Airport,small_airport,Agnew,AU,-12.1456,142.149369,0,0,0.25,0.25
AYD,Alroy Downs Airport,small_airport,Alroy Downs,AU,-19.2908,136.078995,0,0,0.25,0.25
BYX,Baniyala Airport,small_airport,Baniyala,AU,-13.1981,136.227005,0,0,0.25,0.25
COB,Coolibah Airport,small_airport,Coolibah,AU,-15.548299789428713,130.96200561523438,0,0,0.25,0.25
CRJ,Coorabie Airport,small_airport,Coorabie,AU,-31.894399642944336,132.29600524902344,0,0,0.25,0.25
CRY,Carlton Hill Airport,small_airport,Carlton Hill,AU,-15.50189971923828,128.53399658203125,0,0,0.25,0.25
CSD,Cresswell Downs Airport,small_airport,Cresswell Downs,AU,-17.947999954223633,135.91600036621094,0,0,0.25,0.25
DYM,Diamantina Lakes Airport,small_airport,Diamantina Lakes,AU,-23.761699676513672,141.14500427246094,0,0,0.25,0.25
HLV,Helenvale Airport,small_airport,Helenvale,AU,-15.685799598693848,145.21499633789062,0,0,0.25,0.25
KBD,Kimberley Downs Airport,small_airport,Kimberley Downs,AU,-17.39780044555664,124.3550033569336,0,0,0.25,0.25
KGR,Kulgera Airport,small_airport,Ghan,AU,-25.8428,133.292007,0,0,0.25,0.25
PEP,Peppimenarti Airport,small_airport,Peppimenarti,AU,-14.1442,130.091003,0,0,0.25,0.25
RDA,Rockhampton Downs Airport,small_airport,Rockhampton Downs,AU,-18.95330047607422,135.2010040283203,0,0,0.25,0.25
SSK,Sturt Creek Airport,small_airport,Sturt Creek,AU,-19.166400909423828,128.1739959716797,0,0,0.25,0.25
SWB,Shaw River Airport,small_airport,Shaw River,AU,-21.510299682617188,119.36199951171876,0,0,0.25,0.25
TWP,Torwood Airport,small_airport,Torwood,AU,-17.363300323486328,143.75,0,0,0.25,0.25
ZVG,Springvale Airport,small_airport,Springvale,AU,-17.7869,127.669998,0,0,0.25,0.25
BCZ,Milyakburra Airport,small_airport,Bickerton Island,AU,-13.7808333333,136.201666667,0,0,0.25,0.25
BHT,Brighton Downs Airport,small_airport,Brighton Downs,AU,-23.363333,141.562778,0,0,0.25,0.25
CBC,Cherrabun Airport,small_airport,,AU,-18.917777777800005,125.537777778,0,0,0.25,0.25
FSL,Fossil Downs Airport,small_airport,Fossil Downs Station,AU,-18.1321,125.7873,0,0,0.25,0.25
KDS,Kamaran Downs Airport,small_airport,Kamaran Downs,AU,-24.3388,139.2785,0,0,0.25,0.25
LDW,Lansdowne Airport,small_airport,Lansdowne Station,AU,-17.6128,126.743,0,0,0.25,0.25
LGE,Mulan Airport,small_airport,Lake Gregory,AU,-20.1089,127.619,0,0,0.25,0.25
LLL,Lissadell Airport,small_airport,Lissadell Station,AU,-16.661,128.594,0,0,0.25,0.25
MIZ,Mainoru Airstrip,small_airport,Mainoru,AU,-14.0533,134.0942,0,0,0.25,0.25
MRT,Moroak Airport,small_airport,Moroak,AU,-14.818133,133.700594,0,0,0.25,0.25
NRY,Newry Airport,small_airport,Newry,AU,-16.0442,129.2638,0,0,0.25,0.25
OXO,Orientos Airport,small_airport,Orientos,AU,-28.0598,141.5361,0,0,0.25,0.25
RKY,Rokeby Airport,small_airport,Rokeby,AU,-13.6434,142.641,0,0,0.25,0.25
RLP,Rosella Plains Airport,small_airport,Rosella Plains,AU,-18.4253,144.4587,0,0,0.25,0.25
RPV,Roper Valley Airport,small_airport,Roper Valley,AU,-14.9215,134.05,0,0,0.25,0.25
SRM,Sandringham Airport,small_airport,Sandringham Station,AU,-24.0568,139.0821,0,0,0.25,0.25
WHL,Welshpool Airport,small_airport,Welshpool,AU,-38.682382,146.445331,0,0,0.25,0.25
ABG,Abingdon Downs Airport,small_airport,Abingdon Downs,AU,-17.608814,143.183531,0,0,0.25,0.25
AWN,Alton Downs Airport,small_airport,,AU,-26.488959,139.259906,0,0,0.25,0.25
AUD,Augustus Downs Airport,small_airport,,AU,-18.5087,139.882084,0,0,0.25,0.25
MRP,Marla Airport,small_airport,Marla,AU,-27.334298,133.627696,0,0,0.25,0.25
AXL,Alexandria Homestead Airport,small_airport,,AU,-19.060199737548828,136.7100067138672,0,0,0.25,0.25
AXC,Aramac Airport,small_airport,,AU,-22.95788,145.249504,0,0,0.25,0.25
ADO,Andamooka Airport,small_airport,Andamooka,AU,-30.438299,137.136993,0,0,0.25,0.25
AMX,Ammaroo Airport,small_airport,,AU,-21.738300323486328,135.24200439453125,0,0,0.25,0.25
AMT,Amata Airport,small_airport,,AU,-26.097363,131.202732,0,0,0.25,0.25
WLP,West Angelas Airport,small_airport,,AU,-23.1355555556,118.707222222,0,0,0.25,0.25
AYL,Anthony Lagoon Airport,small_airport,,AU,-18.018079031,135.535068512,0,0,0.25,0.25
ABH,Alpha Airport,small_airport,Alpha,AU,-23.652849,146.582668,0,0,0.25,0.25
GYL,Argyle Airport,small_airport,,AU,-16.636944,128.451389,0,0,0.25,0.25
AAB,Arrabury Airport,small_airport,Tanbar,AU,-26.69639,141.048718,0,0,0.25,0.25
AWP,Austral Downs Airport,small_airport,,AU,-20.5,137.75,0,0,0.25,0.25
AVG,Auvergne Airport,small_airport,Auvergne Station,AU,-15.690555,130.008818,0,0,0.25,0.25
AYR,Ayr Airport,small_airport,Ayr,AU,-19.595832,147.324495,0,0,0.25,0.25
MBN,Mount Barnett Airport,small_airport,Wunaamin Miliwundi Ranges,AU,-16.741453,125.905608,0,0,0.25,0.25
BDD,Badu Island Airport,small_airport,Badu Island,AU,-10.14955,142.173665,0,0,0.25,0.25
BKP,Barkly Downs Airport,small_airport,,AU,-20.4958333333,138.474722222,0,0,0.25,0.25
BDW,Bedford Downs Airport,small_airport,,AU,-17.286699295,127.462997437,0,0,0.25,0.25
BXG,Bendigo Airport,small_airport,,AU,-36.739399,144.330002,0,0,0.25,0.25
BXF,Bellburn Airstrip,small_airport,Pumululu National Park,AU,-17.545,128.305,0,0,0.25,0.25
BTX,Betoota Airport,small_airport,,AU,-25.694791,140.738339,0,0,0.25,0.25
BEE,Beagle Bay Airport,small_airport,Dampier Peninsula,AU,-17.0165,122.6464,0,0,0.25,0.25
OCM,Boolgeeda,small_airport,,AU,-22.541111,117.269444,0,0,0.25,0.25
BQW,Balgo Hill Airport,small_airport,Balgo,AU,-20.148333,127.973889,0,0,0.25,0.25
BIW,Billiluna Airport,small_airport,,AU,-19.5666999817,127.666999817,0,0,0.25,0.25
BZP,Bizant Airport,small_airport,Lakefield National Park,AU,-14.7402777778,144.119444444,0,0,0.25,0.25
LCN,Balcanoona Airport,small_airport,,AU,-30.535,139.337006,0,0,0.25,0.25
BLS,Bollon Airport,small_airport,,AU,-28.051247,147.481799,0,0,0.25,0.25
BFC,Bloomfield River Airport,small_airport,,AU,-15.8736000061,145.330001831,0,0,0.25,0.25
GIC,Boigu Island Airport,small_airport,Boigu Island,AU,-9.23278,142.218002,0,0,0.25,0.25
BMP,Brampton Island Airport,small_airport,,AU,-20.804633,149.279931,0,0,0.25,0.25
BOX,Borroloola Airport,small_airport,,AU,-16.0753,136.302002,0,0,0.25,0.25
BTD,Brunette Downs Airport,small_airport,,AU,-18.637472,135.938355,0,0,0.25,0.25
BYP,Barimunya Airport,small_airport,,AU,-22.673889,119.166111,0,0,0.25,0.25
BVW,Batavia Downs Airport,small_airport,,AU,-12.6592,142.675003,0,0,0.25,0.25
BUY,Bunbury Airport,small_airport,,AU,-33.378056,115.676944,0,0,0.25,0.25
BIP,Bulimba Airport,small_airport,,AU,-16.8808002472,143.479003906,0,0,0.25,0.25
ZBO,Bowen Airport,small_airport,Bowen,AU,-20.017999,148.215245,0,0,0.25,0.25
BCK,Bolwarra Airport,small_airport,,AU,-17.388299942,144.169006348,0,0,0.25,0.25
BWB,Barrow Island Airport,small_airport,,AU,-20.864444,115.406111,0,0,0.25,0.25
BVZ,Beverley Springs Airport,small_airport,Wunaamin Miliwundi Ranges,AU,-16.732756,125.439105,0,0,0.25,0.25
CTR,Cattle Creek Airport,small_airport,,AU,-17.607000351,131.548995972,0,0,0.25,0.25
CGV,Caiguna Airport,small_airport,,AU,-32.280457,125.477943,0,0,0.25,0.25
CLH,Coolah Airport,small_airport,,AU,-31.773864,149.615322,0,0,0.25,0.25
CSI,Casino Airport,small_airport,,AU,-28.881304,153.060724,0,0,0.25,0.25
CBY,Canobie Airport,small_airport,Canobie,AU,-19.4794006348,140.927001953,0,0,0.25,0.25
CBI,Cape Barren Island Airport,small_airport,Cape Barren Island,AU,-40.390537,148.016933,0,0,0.25,0.25
CRB,Collarenebri Airport,small_airport,,AU,-29.523239,148.578243,0,0,0.25,0.25
CNC,Coconut Island Airport,small_airport,,AU,-10.050139,143.070007,0,0,0.25,0.25
CBX,Condobolin Airport,small_airport,,AU,-33.06565,147.21316,0,0,0.25,0.25
CUD,Caloundra Airport,small_airport,Caloundra,AU,-26.80336,153.104975,0,0,0.25,0.25
CFI,Camfield Airport,small_airport,,AU,-17.021699905395508,131.32699584960938,0,0,0.25,0.25
CFH,Clifton Hills Airport,small_airport,Clifton Hills,AU,-27.018299,138.891998,0,0,0.25,0.25
CQP,Cape Flattery Airport,small_airport,,AU,-14.970832,145.311667,0,0,0.25,0.25
LLG,Chillagoe Airport,small_airport,Chillagoe,AU,-17.138386,144.528494,0,0,0.25,0.25
CRH,Cherrabah Airport,small_airport,Cherrabah Homestead Resort,AU,-28.4301,152.08895,0,0,0.25,0.25
CKW,Christmas Creek Airport,small_airport,Christmas Creek Mine,AU,-22.354302,119.642603,0,0,0.25,0.25
CXT,Charters Towers Airport,small_airport,,AU,-20.0431,146.272995,0,0,0.25,0.25
CKI,Croker Island Airport,small_airport,,AU,-11.165,132.483002,0,0,0.25,0.25
CML,Camooweal Airport,small_airport,,AU,-19.911699,138.125,0,0,0.25,0.25
NIF,Camp Nifty Airport,small_airport,,AU,-21.6717,121.586998,0,0,0.25,0.25
CES,Cessnock Airport,small_airport,,AU,-32.787498,151.341995,0,0,0.25,0.25
ODL,Cordillo Downs Airport,small_airport,Cordillo Downs,AU,-26.74530029296875,140.63800048828125,0,0,0.25,0.25
CIE,Collie Airport,small_airport,Collie,AU,-33.3666992188,116.217002869,0,0,0.25,0.25
CDA,Cooinda Airport,small_airport,,AU,-12.903300285339355,132.53199768066406,0,0,0.25,0.25
CFP,Carpentaria Downs Airport,small_airport,Carpentaria Downs,AU,-18.718481,144.313028,0,0,0.25,0.25
CXQ,Christmas Creek Station Airport,small_airport,Wangkat Jungka,AU,-18.8728,125.934,0,0,0.25,0.25
CDQ,Croydon Airport,small_airport,,AU,-18.225000381469727,142.25799560546875,0,0,0.25,0.25
KCE,Collinsville Airport,small_airport,,AU,-20.59670066833496,147.86000061035156,0,0,0.25,0.25
CUG,Cudal Airport,small_airport,,AU,-33.278026,148.768708,0,0,0.25,0.25
CUY,Cue Airport,small_airport,,AU,-27.450663,117.917703,0,0,0.25,0.25
CJF,Coondewanna Airport,small_airport,Coondewanna,AU,-22.966667,118.813333,0,0,0.25,0.25
CWR,Cowarie Airport,small_airport,,AU,-27.711700439453125,138.3280029296875,0,0,0.25,0.25
CCW,Cowell Airport,small_airport,,AU,-33.666698,136.891998,0,0,0.25,0.25
COY,Coolawanyah Airport,small_airport,Coolawanyah Station,AU,-21.7946,117.755,0,0,0.25,0.25
DJR,Dajarra Airport,small_airport,,AU,-21.70829963684082,139.5330047607422,0,0,0.25,0.25
DBY,Dalby Airport,small_airport,,AU,-27.158476,151.263428,0,0,0.25,0.25
DNB,Dunbar Airport,small_airport,Maramie,AU,-16.047394,142.394415,0,0,0.25,0.25
DFP,Drumduff Airport,small_airport,Palmer,AU,-16.052124,143.013339,0,0,0.25,0.25
DGD,Dalgaranga Gold Mine Airport,small_airport,,AU,-27.829722,117.316389,0,0,0.25,0.25
DNG,Doongan Airport,small_airport,Drysdale River,AU,-15.386429,126.302235,0,0,0.25,0.25
DXD,Dixie Airport,small_airport,New Dixie,AU,-15.1174944348,143.316049576,0,0,0.25,0.25
DKI,Dunk Island Airport,small_airport,Dunk Island,AU,-17.93913,146.141447,0,0,0.25,0.25
DLK,Dulkaninna Airport,small_airport,Dulkaninna,AU,-29.0132999420166,138.4810028076172,0,0,0.25,0.25
DDN,Delta Downs Airport,small_airport,,AU,-16.99169921875,141.31700134277344,0,0,0.25,0.25
DLV,Delissaville Airport,small_airport,,AU,-12.550000190734863,130.68499755859375,0,0,0.25,0.25
DYW,Daly Waters Airport,small_airport,Daly Waters,AU,-16.264695066399998,133.383378983,0,0,0.25,0.25
DVR,Daly River Airport,small_airport,Nauiyu,AU,-13.749806,130.693878,0,0,0.25,0.25
NLF,Darnley Island Airport,small_airport,Darnley Island,AU,-9.579176,143.780276,0,0,0.25,0.25
DRD,Dorunda Airport,small_airport,Dorunda Outstation,AU,-16.5537,141.8238,0,0,0.25,0.25
DVP,Davenport Downs Airport,small_airport,,AU,-24.149999618530277,141.10800170898438,0,0,0.25,0.25
DOX,Dongara Airport,small_airport,Port Denison,AU,-29.298128,114.927334,0,0,0.25,0.25
DRY,Drysdale River Airport,small_airport,Drysdale River,AU,-15.71357,126.381097,0,0,0.25,0.25
DHD,Durham Downs Airport,small_airport,,AU,-27.075000762939453,141.89999389648438,0,0,0.25,0.25
DRR,Durrie Airport,small_airport,,AU,-25.684999465942383,140.22799682617188,0,0,0.25,0.25
SRR,Dunwich Airport,small_airport,North Stradbroke Island,AU,-27.519005,153.427618,0,0,0.25,0.25
DKV,Docker River Airport,small_airport,Kaltukatjara,AU,-24.859533,129.122209,0,0,0.25,0.25
EUC,Eucla Airport,small_airport,,AU,-31.707084,128.877243,0,0,0.25,0.25
ETD,Etadunna Airport,small_airport,Etadunna,AU,-28.740801,138.589005,0,0,0.25,0.25
ENB,Eneabba Airport,small_airport,Eneabba,AU,-29.832500457763672,115.24600219726562,0,0,0.25,0.25
EIH,Einasleigh Airport,small_airport,Einasleigh,AU,-18.5032997131,144.093994141,0,0,0.25,0.25
EKD,Elkedra Airport,small_airport,,AU,-21.1725006104,135.444000244,0,0,0.25,0.25
EDD,Erldunda Airport,small_airport,Ghan,AU,-25.206106,133.254161,0,0,0.25,0.25
ERB,Ernabella Airport,small_airport,,AU,-26.2632999420166,132.1820068359375,0,0,0.25,0.25
ERQ,Elrose Airport,small_airport,Elrose Mine,AU,-20.9764,141.0066,0,0,0.25,0.25
EVD,Eva Downs Airport,small_airport,Eva Downs,AU,-18.0009994507,134.863006592,0,0,0.25,0.25
EVH,Evans Head Aerodrome,small_airport,,AU,-29.101786,153.419255,0,0,0.25,0.25
EXM,Exmouth Airport,small_airport,Exmouth,AU,-22.040677,114.102663,0,0,0.25,0.25
KFE,Fortescue - Dave Forrest Aerodrome,small_airport,Cloudbreak Village,AU,-22.290754,119.437143,0,0,0.25,0.25
FLY,Finley Airport,small_airport,,AU,-35.658918,145.561214,0,0,0.25,0.25
FVL,Flora Valley Airport,small_airport,,AU,-18.297844,128.455897,0,0,0.25,0.25
FIK,Finke Airport,small_airport,Finke,AU,-25.5946998596,134.582992554,0,0,0.25,0.25
FVR,Oombulgurri Airport,small_airport,Oombulgurri,AU,-15.1647,127.8401,0,0,0.25,0.25
FOT,Forster (Wallis Is) Airport,small_airport,,AU,-32.202489,152.481136,0,0,0.25,0.25
GBP,Gamboola Airport,small_airport,Gamboola,AU,-16.54412,143.668155,0,0,0.25,0.25
GAH,Gayndah Airport,small_airport,Gayndah,AU,-25.615939,151.62055,0,0,0.25,0.25
GBL,South Goulburn Is Airport,small_airport,,AU,-11.65,133.382004,0,0,0.25,0.25
GOO,Goondiwindi Airport,small_airport,,AU,-28.5214,150.320007,0,0,0.25,0.25
GDD,Gordon Downs Airport,small_airport,Gordon Downs,AU,-18.6781005859375,128.5919952392578,0,0,0.25,0.25
GGD,Gregory Downs Airport,small_airport,,AU,-18.625,139.23300170898438,0,0,0.25,0.25
GBW,Ginbata Airport,small_airport,Ginbata,AU,-22.5812,120.03553,0,0,0.25,0.25
GBV,Gibb River Airport,small_airport,Gibb,AU,-16.418661,126.445685,0,0,0.25,0.25
GKL,Great Keppel Is Airport,small_airport,Great Keppel Island,AU,-23.184575,150.94164,0,0,0.25,0.25
GLG,Glengyle Airport,small_airport,,AU,-24.808300018310547,139.60000610351562,0,0,0.25,0.25
GLM,Glenormiston Airport,small_airport,,AU,-22.8883,138.824997,0,0,0.25,0.25
GFE,Grenfell Airport,small_airport,Grenfell,AU,-34.0,148.132995605,0,0,0.25,0.25
GVP,Greenvale Airport,small_airport,,AU,-18.9966,145.0136,0,0,0.25,0.25
GPD,Mount Gordon Airport,small_airport,Mount Gordon Mine,AU,-19.77265,139.40425,0,0,0.25,0.25
GSC,Gascoyne Junction Airport,small_airport,Gascoyne Junction,AU,-25.0546,115.2026,0,0,0.25,0.25
GTT,Georgetown Airport,small_airport,Georgetown,AU,-18.302676,143.530925,0,0,0.25,0.25
GEE,George Town Airport,small_airport,George Town,AU,-41.079491,146.839061,0,0,0.25,0.25
GYP,Gympie Airport,small_airport,,AU,-26.290149,152.702998,0,0,0.25,0.25
HWK,Wilpena Pound Airport,small_airport,Hawker,AU,-31.855907,138.468079,0,0,0.25,0.25
HUB,Humbert River Airport,small_airport,,AU,-16.489669799804688,130.63027954101562,0,0,0.25,0.25
HRY,Henbury Airport,small_airport,Ghan,AU,-24.584,133.236,0,0,0.25,0.25
HIP,Headingly Airport,small_airport,,AU,-21.33329963684082,138.2830047607422,0,0,0.25,0.25
HIG,Highbury Airport,small_airport,Highbury,AU,-16.424148,143.14534,0,0,0.25,0.25
HLL,Hillside Airport,small_airport,Hillside,AU,-21.718283,119.440334,0,0,0.25,0.25
HMG,Hermannsburg Airport,small_airport,Hermannsburg (Ntaria),AU,-23.926485,132.807798,0,0,0.25,0.25
HOK,Hooker Creek Airport,small_airport,Lajamanu,AU,-18.3367004395,130.638000488,0,0,0.25,0.25
HPE,Hope Vale Airport,small_airport,Hope Vale,AU,-15.2923,145.1035,0,0,0.25,0.25
HAT,Heathlands Airport,small_airport,Shelburne,AU,-11.7369,142.576996,0,0,0.25,0.25
HGD,Hughenden Airport,small_airport,Hughenden,AU,-20.815001,144.225006,0,0,0.25,0.25
IBM,Iron Bridge Mine Airport,small_airport,Japal Camp,AU,-21.287575,118.88252,0,0,0.25,0.25
IDK,Indulkana Airport,small_airport,Indulkana,AU,-26.965435,133.321989,0,0,0.25,0.25
IFL,Innisfail Airport,small_airport,,AU,-17.559401,146.011993,0,0,0.25,0.25
IFF,Iffley Airport,small_airport,,AU,-18.899999618530277,141.2169952392578,0,0,0.25,0.25
IGH,Ingham Airport,small_airport,,AU,-18.664149,146.145804,0,0,0.25,0.25
IKP,Inkerman Airport,small_airport,Inkerman,AU,-16.229225,141.434607,0,0,0.25,0.25
INJ,Injune Airport,small_airport,Injune,AU,-25.851,148.5497,0,0,0.25,0.25
INM,Innamincka Airport,small_airport,,AU,-27.697589,140.739498,0,0,0.25,0.25
IVW,Inverway Airport,small_airport,Inverway,AU,-17.8411006927,129.643005371,0,0,0.25,0.25
ISI,Isisford Airport,small_airport,,AU,-24.25830078125,144.4250030517578,0,0,0.25,0.25
JAB,Jabiru Airport,small_airport,,AU,-12.658056,132.894638,0,0,0.25,0.25
JUN,Jundah Airport,small_airport,Jundah,AU,-24.838045,143.061962,0,0,0.25,0.25
JUR,Jurien Bay Airport,small_airport,Jurien Bay,AU,-30.302699,115.055551,0,0,0.25,0.25
UBU,Kalumburu Airport,small_airport,Kalumburu,AU,-14.28784,126.633182,0,0,0.25,0.25
KQR,Karara Airport,small_airport,Karara,AU,-29.217223,116.687154,0,0,0.25,0.25
KYB,Ken's Bore airport,small_airport,Ken's Bore,AU,-22.15722,116.156223,0,0,0.25,0.25
KDB,Kambalda Airport,small_airport,Kambalda West,AU,-31.1907,121.5978,0,0,0.25,0.25
KAX,Kalbarri Airport,small_airport,Kalbarri,AU,-27.692813,114.259169,0,0,0.25,0.25
KBY,Streaky Bay Airport,small_airport,,AU,-32.836621,134.292991,0,0,0.25,0.25
KBJ,Kings Canyon Airport,small_airport,Petermann,AU,-24.260229,131.488924,0,0,0.25,0.25
KCS,Kings Creek Airport,small_airport,Petermann,AU,-24.421285,131.819458,0,0,0.25,0.25
OOD,Koodaideri Mine Airport,small_airport,Koodaideri Mine,AU,-22.504291,119.07683,0,0,0.25,0.25
KBB,Kirkimbie Station Airport,small_airport,Kirkimbie,AU,-17.7791996002,129.210006714,0,0,0.25,0.25
KFG,Kalkgurung Airport,small_airport,,AU,-17.431900024414062,130.80799865722656,0,0,0.25,0.25
KOH,Koolatah Airport,small_airport,Maramie,AU,-15.888484,142.439461,0,0,0.25,0.25
KKP,Koolburra Airport,small_airport,Koolburra,AU,-15.318900108337402,143.9550018310547,0,0,0.25,0.25
KCI,Koolan Central Airport,small_airport,Koolan Island,AU,-16.125,123.735,0,0,0.25,0.25
KRB,Karumba Airport,small_airport,,AU,-17.45669937133789,140.8300018310547,0,0,0.25,0.25
KML,Kamileroi Airport,small_airport,,AU,-19.375,140.0570068359375,0,0,0.25,0.25
KNI,Katanning Airport,small_airport,,AU,-33.699423,117.65703,0,0,0.25,0.25
KPP,Kalpowar Airport,small_airport,Kalpower,AU,-14.89,144.22,0,0,0.25,0.25
KUG,Kubin Island Airport,small_airport,Kubin Island,AU,-10.22648,142.219619,0,0,0.25,0.25
KRD,Kurundi Airport,small_airport,Kurundi Station,AU,-20.51,134.6706,0,0,0.25,0.25
LWH,Lawn Hill Airport,small_airport,,AU,-18.57453,138.586106,0,0,0.25,0.25
LEL,Lake Evella Airport,small_airport,,AU,-12.498900413513184,135.80599975585938,0,0,0.25,0.25
LFP,Lakefield Airport,small_airport,Lakefield,AU,-14.9207,144.203,0,0,0.25,0.25
LTP,Lyndhurst Airport,small_airport,Lyndhurst,AU,-19.1958007812,144.371002197,0,0,0.25,0.25
LIB,Limbunya Airport,small_airport,Limbunya,AU,-17.2355995178,129.882003784,0,0,0.25,0.25
LDC,Lindeman Island Airport,small_airport,Lindeman Island,AU,-20.4535999298,149.039993286,0,0,0.25,0.25
LNH,Lake Nash Airport,small_airport,Alpurrurulam,AU,-20.9807,137.9178,0,0,0.25,0.25
BBL,Ballera Airport,small_airport,,AU,-27.405633,141.809458,0,0,0.25,0.25
BEO,Lake Macquarie Airport,small_airport,City of Lake Macquarie,AU,-33.065975,151.646283,0,0,0.25,0.25
LKD,Lakeland Airport,small_airport,Lakeland Downs,AU,-15.841213,144.849118,0,0,0.25,0.25
LOC,Lock Airport,small_airport,Lock,AU,-33.5442008972168,135.6929931640625,0,0,0.25,0.25
LOA,Lorraine Airport,small_airport,,AU,-18.99329948425293,139.90699768066406,0,0,0.25,0.25
LTV,Lotus Vale Airport,small_airport,Lotus Vale,AU,-17.048299789399998,141.37600708,0,0,0.25,0.25
LUU,Laura Airport,small_airport,,AU,-15.560495,144.451418,0,0,0.25,0.25
LUT,New Laura Airport,small_airport,Laura Station,AU,-15.182758,144.345535,0,0,0.25,0.25
LVO,Laverton Airport,small_airport,Laverton,AU,-28.614267,122.428673,0,0,0.25,0.25
LZR,Lizard Island Airport,small_airport,,AU,-14.673273,145.454571,0,0,0.25,0.25
UBB,Mabuiag Island Airport,small_airport,Mabuiag Island,AU,-9.950168,142.19523,0,0,0.25,0.25
MYI,Murray Island Airport,small_airport,Murray Island,AU,-9.915105,144.054644,0,0,0.25,0.25
MBB,Marble Bar Airport,small_airport,,AU,-21.163299560546875,119.83300018310548,0,0,0.25,0.25
XMC,Mallacoota Airport,small_airport,,AU,-37.59830093383789,149.72000122070312,0,0,0.25,0.25
MFP,Manners Creek Airport,small_airport,,AU,-22.100000381469727,137.98300170898438,0,0,0.25,0.25
MLR,Millicent Airport,small_airport,,AU,-37.58359909057617,140.36599731445312,0,0,0.25,0.25
MQA,Mandora Airport,small_airport,Eighty Mile Beach,AU,-19.73799,120.83818,0,0,0.25,0.25
MNW,Macdonald Downs Airport,small_airport,,AU,-22.4440002441,135.199005127,0,0,0.25,0.25
MLV,Merluna Airport,small_airport,Merluna,AU,-13.0649,142.4536,0,0,0.25,0.25
GSN,Mount Gunson Airport,small_airport,Mount Gunson,AU,-31.4597,137.174443333,0,0,0.25,0.25
MGV,Margaret River (Station) Airport,small_airport,,AU,-18.6217002869,126.883003235,0,0,0.25,0.25
MQZ,Margaret River Airport,small_airport,,AU,-33.930599,115.099998,0,0,0.25,0.25
MVU,Musgrave Airport,small_airport,Musgrave,AU,-14.7757,143.5047,0,0,0.25,0.25
MHO,Mount House Airport,small_airport,Wunaamin Miliwundi Ranges,AU,-17.051917,125.712491,0,0,0.25,0.25
XML,Minlaton Airport,small_airport,,AU,-34.743801,137.529087,0,0,0.25,0.25
MIH,Mitchell Plateau Airport,small_airport,Mitchell Plateau,AU,-14.790817,125.825729,0,0,0.25,0.25
MWY,Miranda Downs Airport,small_airport,Miranda Downs,AU,-17.328899,141.886002,0,0,0.25,0.25
MTQ,Mitchell Airport,small_airport,,AU,-26.483299255371094,147.93699645996094,0,0,0.25,0.25
MJP,Manjimup Airport,small_airport,,AU,-34.26530075073242,116.13999938964844,0,0,0.25,0.25
WLE,Miles Airport,small_airport,,AU,-26.806447,150.168953,0,0,0.25,0.25
WUI,Murrin Murrin Airport,small_airport,Murrin Murrin,AU,-28.705299,121.89099,0,0,0.25,0.25
MMM,Middlemount Airport,small_airport,,AU,-22.801444,148.706796,0,0,0.25,0.25
MTL,Maitland Airport,small_airport,,AU,-32.701265,151.492912,0,0,0.25,0.25
ONR,Monkira Airport,small_airport,,AU,-24.816699981689453,140.5330047607422,0,0,0.25,0.25
MSF,Mount Swan Airport,small_airport,,AU,-22.624696,135.034512,0,0,0.25,0.25
OXY,Morney Airport,small_airport,,AU,-25.358299255371094,141.43299865722656,0,0,0.25,0.25
OOR,Mooraberree Airport,small_airport,,AU,-25.25,140.98300170898438,0,0,0.25,0.25
MET,Moreton Airport,small_airport,Moreton,AU,-12.444199562099998,142.638000488,0,0,0.25,0.25
MIN,Minnipa Airport,small_airport,,AU,-32.843299865722656,135.14500427246094,0,0,0.25,0.25
MQE,Marqua Airport,small_airport,Marqua,AU,-22.80579948425293,137.25100708007812,0,0,0.25,0.25
MWB,Morawa Airport,small_airport,,AU,-29.2017,116.022003,0,0,0.25,0.25
MTD,Mount Sanford Station Airport,small_airport,,AU,-16.978300094604492,130.55499267578125,0,0,0.25,0.25
MIY,Mittebah Airport,small_airport,,AU,-18.8093,137.0815,0,0,0.25,0.25
UTB,Muttaburra Airport,small_airport,,AU,-22.58329963684082,144.5330047607422,0,0,0.25,0.25
MNQ,Monto Airport,small_airport,,AU,-24.892267,151.101787,0,0,0.25,0.25
MUQ,Muccan Station Airport,small_airport,Muccan Station,AU,-20.658899307250977,120.06700134277344,0,0,0.25,0.25
MNE,Mungeranie Airport,small_airport,Mungeranie,AU,-28.00919914245605,138.65699768066406,0,0,0.25,0.25
MVK,Mulka Airport,small_airport,Mulka,AU,-28.34779930114746,138.64999389648438,0,0,0.25,0.25
MUP,Mulga Park Airport,small_airport,,AU,-25.8600006104,131.649993896,0,0,0.25,0.25
MNV,Mount Valley Airport,small_airport,,AU,-14.0833,133.817001,0,0,0.25,0.25
MXU,Mullewa Airport,small_airport,,AU,-28.475,115.516998,0,0,0.25,0.25
MWT,Moolawatana Airport,small_airport,Moolawatana Station,AU,-29.9069,139.765,0,0,0.25,0.25
MXD,Marion Downs Airport,small_airport,Marion Downs,AU,-23.363702,139.649663,0,0,0.25,0.25
MBH,Maryborough Airport,small_airport,Maryborough,AU,-25.513528,152.713603,0,0,0.25,0.25
MYO,Myroodan Station Airport,small_airport,,AU,-18.123996,124.270261,0,0,0.25,0.25
RTY,Merty Merty Airport,small_airport,,AU,-28.582713,140.303264,0,0,0.25,0.25
NMR,Nappa Merrie Airport,small_airport,,AU,-27.549201,141.158416,0,0,0.25,0.25
NBH,Nambucca Heads Airport,small_airport,Nambucca Heads,AU,-30.673058,152.984233,0,0,0.25,0.25
NLS,Nicholson Airport,small_airport,,AU,-18.049999237060547,128.89999389648438,0,0,0.25,0.25
NKB,Noonkanbah Airport,small_airport,,AU,-18.4946994781,124.851997375,0,0,0.25,0.25
NMP,New Moon Airport,small_airport,Basalt,AU,-19.2,145.773,0,0,0.25,0.25
NPP,Napperby Airport,small_airport,Napperby,AU,-22.5312,132.7632,0,0,0.25,0.25
NAC,Naracoorte Airport,small_airport,,AU,-36.985298,140.725006,0,0,0.25,0.25
NRG,Narrogin Airport,small_airport,Narrogin,AU,-32.93,117.080002,0,0,0.25,0.25
NSV,Noosa Airport,small_airport,,AU,-26.423177,153.064935,0,0,0.25,0.25
NSM,Norseman Aerodrome,small_airport,Norseman,AU,-32.203,121.758127,0,0,0.25,0.25
NUR,Nullabor Motel Airport,small_airport,,AU,-31.441699981689453,130.90199279785156,0,0,0.25,0.25
NLL,Nullagine Airport,small_airport,,AU,-21.913299560546875,120.197998046875,0,0,0.25,0.25
NUB,Numbulwar Airport,small_airport,,AU,-14.2717,135.716995,0,0,0.25,0.25
UTD,Nutwood Downs Airport,small_airport,Nutwood Downs,AU,-15.8074,134.1459,0,0,0.25,0.25
NYN,Nyngan Airport,small_airport,,AU,-31.550645,147.202973,0,0,0.25,0.25
OPI,Oenpelli Airport,small_airport,,AU,-12.325,133.005997,0,0,0.25,0.25
XCO,Colac Airport,small_airport,Colac Otway Shire,AU,-38.286701,143.679993,0,0,0.25,0.25
ONS,Onslow Airport,small_airport,,AU,-21.670161,115.114902,0,0,0.25,0.25
ODD,Oodnadatta Airport,small_airport,,AU,-27.562473,135.442946,0,0,0.25,0.25
MOO,Moomba Airport,small_airport,Moomba,AU,-28.0994,140.197006,0,0,0.25,0.25
RBS,Orbost Airport,small_airport,,AU,-37.790000915527344,148.61000061035156,0,0,0.25,0.25
OKB,Orchid Beach Airport,small_airport,Orchid Beach,AU,-24.959400177002,153.31500244141,0,0,0.25,0.25
ODR,Ord River Airport,small_airport,Ord River,AU,-17.34079933166504,128.91200256347656,0,0,0.25,0.25
OSO,Osborne Mine Airport,small_airport,,AU,-22.0816993713,140.554992676,0,0,0.25,0.25
OYN,Ouyen Airport,small_airport,Ouyen,AU,-35.088819,142.354778,0,0,0.25,0.25
PMK,Palm Island Airport,small_airport,,AU,-18.755300521850582,146.58099365234375,0,0,0.25,0.25
PDN,Parndana Airport,small_airport,Kangaroo Island,AU,-35.807,137.264,0,0,0.25,0.25
PDE,Pandie Pandie Airport,small_airport,,AU,-26.122248,139.403501,0,0,0.25,0.25
PRD,Pardoo Airport,small_airport,Pardoo,AU,-20.119428,119.571945,0,0,0.25,0.25
PXH,Prominent Hill Airport,small_airport,Mount Eba,AU,-29.716,135.5244,0,0,0.25,0.25
PEY,Penong Airport,small_airport,Penong,AU,-31.916700363159,133.0,0,0,0.25,0.25
MBF,Porepunkah Airport,small_airport,,AU,-36.717731,146.890039,0,0,0.25,0.25
PEA,Penneshaw Airport,small_airport,Ironstone,AU,-35.7558462874,137.962875366,0,0,0.25,0.25
UMR,Woomera Airfield,small_airport,Woomera,AU,-31.144199,136.817001,0,0,0.25,0.25
UIR,Quirindi Airport,small_airport,,AU,-31.498177,150.521708,0,0,0.25,0.25
UEE,Queenstown Airport,small_airport,,AU,-42.075731,145.530088,0,0,0.25,0.25
RRV,Robinson River Airport,small_airport,,AU,-16.7182998657,136.945007324,0,0,0.25,0.25
RAM,Ramingining Airport,small_airport,,AU,-12.356399536132812,134.8979949951172,0,0,0.25,0.25
ROH,Robinhood Airport,small_airport,,AU,-18.84499931335449,143.7100067138672,0,0,0.25,0.25
RBU,Roebourne Airport,small_airport,Roebourne,AU,-20.763898,117.155199,0,0,0.25,0.25
RBC,Robinvale Airport,small_airport,Robinvale,AU,-34.642887,142.773042,0,0,0.25,0.25
RPB,Roper Bar Airport,small_airport,Roper Bar,AU,-14.734814,134.525485,0,0,0.25,0.25
RSB,Roseberth Airport,small_airport,,AU,-25.825737,139.627476,0,0,0.25,0.25
RTS,Rottnest Island Airport,small_airport,,AU,-32.006699,115.540001,0,0,0.25,0.25
RTP,Rutland Plains Airport,small_airport,Yagoonya,AU,-15.644963,141.844373,0,0,0.25,0.25
RHL,Roy Hill Station Airport,small_airport,,AU,-22.625815891,119.959030151,0,0,0.25,0.25
NDS,Sandstone Airport,small_airport,Sandstone,AU,-27.979999542236328,119.2969970703125,0,0,0.25,0.25
WCD,Carosue Dam Airport,small_airport,Cundeelee,AU,-30.173611,122.322222,0,0,0.25,0.25
NSO,Scone Airport,small_airport,,AU,-32.038012,150.831966,0,0,0.25,0.25
SQC,Southern Cross Airport,small_airport,,AU,-31.24,119.360001,0,0,0.25,0.25
SIX,Singleton Airport,small_airport,Singleton,AU,-32.600832,151.193056,0,0,0.25,0.25
ZGL,South Galway Airport,small_airport,,AU,-25.67464,142.089171,0,0,0.25,0.25
SGP,Shay Gap Airport,small_airport,Shay Gap,AU,-20.4247,120.140999,0,0,0.25,0.25
WSY,Shute Harbour/Whitsunday Airport,small_airport,Shute Harbour,AU,-20.276127,148.754979,0,0,0.25,0.25
SBR,Saibai Island Airport,small_airport,Saibai Island,AU,-9.37833,142.625,0,0,0.25,0.25
GOS,Somersby Airstrip,small_airport,Gosford,AU,-33.367681,151.299806,0,0,0.25,0.25
SHU,Smith Point Airport,small_airport,,AU,-11.133566,132.15957,0,0,0.25,0.25
STH,Strathmore Airport,small_airport,Strathmore,AU,-17.862709,142.557788,0,0,0.25,0.25
SLJ,Solomon Airport,small_airport,Karijini National Park,AU,-22.25677,117.850454,0,0,0.25,0.25
SNH,Stanthorpe Airport,small_airport,,AU,-28.620113,151.983281,0,0,0.25,0.25
SCG,Spring Creek Airport,small_airport,,AU,-18.637704,144.545672,0,0,0.25,0.25
SHQ,Southport Airport,small_airport,,AU,-27.921848,153.371469,0,0,0.25,0.25
KSV,Springvale Airport,small_airport,,AU,-23.549999,140.699997,0,0,0.25,0.25
SRN,Strahan Airport,small_airport,,AU,-42.154999,145.292007,0,0,0.25,0.25
HLS,St Helens Airport,small_airport,,AU,-41.336700439453125,148.28199768066406,0,0,0.25,0.25
SSP,Silver Plains Airport,small_airport,Silver Plains,AU,-13.9754,143.5537,0,0,0.25,0.25
XTR,Tara Airport,small_airport,,AU,-27.163054,150.476423,0,0,0.25,0.25
TBL,Tableland Homestead Airport,small_airport,,AU,-17.2833003998,126.900001526,0,0,0.25,0.25
XTO,Taroom Airport,small_airport,,AU,-25.801701,149.899994,0,0,0.25,0.25
TAQ,Tarcoola Airport,small_airport,Tarcoola,AU,-30.702871,134.58282,0,0,0.25,0.25
TBK,Timber Creek Airport,small_airport,,AU,-15.62,130.445007,0,0,0.25,0.25
TDR,Theodore Airport,small_airport,,AU,-24.986796,150.093076,0,0,0.25,0.25
TQP,Trepell Airport,small_airport,Trepell,AU,-21.834999084473,140.88800048828,0,0,0.25,0.25
TAN,Tangalooma Airport,small_airport,,AU,-27.137693,153.364141,0,0,0.25,0.25
GTS,The Granites Airport,small_airport,The Granites Gold Mine,AU,-20.5483,130.347,0,0,0.25,0.25
TDN,Theda Station Airport,small_airport,Drysdale River,AU,-14.790567,126.498041,0,0,0.25,0.25
TYG,Thylungra Airport,small_airport,,AU,-26.093047,143.45136,0,0,0.25,0.25
TKY,Turkey Creek Airport,small_airport,Turkey Creek,AU,-17.0408000946,128.205993652,0,0,0.25,0.25
PHQ,The Monument Airport,small_airport,Phosphate Hill,AU,-21.811100006104,139.92399597168,0,0,0.25,0.25
TPR,Tom Price Airport,small_airport,Tom Price,AU,-22.746000289900003,117.869003296,0,0,0.25,0.25
TYP,Tobermorey Airport,small_airport,Tobermorey,AU,-22.255800247192383,137.9530029296875,0,0,0.25,0.25
TXR,Tanbar Airport,small_airport,Tanbar Station,AU,-25.847799301147,141.92799377441,0,0,0.25,0.25
TCW,Tocumwal Airport,small_airport,,AU,-35.81169891357422,145.60800170898438,0,0,0.25,0.25
TTX,Truscott-Mungalalu Airport,small_airport,Anjo Peninsula,AU,-14.089699745178,126.3809967041,0,0,0.25,0.25
UDA,Undara Airport,small_airport,Undara,AU,-18.19134,144.61224,0,0,0.25,0.25
CZY,Cluny Airport,small_airport,,AU,-24.516700744628903,139.61700439453125,0,0,0.25,0.25
USL,Useless Loop Airport,small_airport,Useless Loop,AU,-26.157923,113.394817,0,0,0.25,0.25
VCD,Victoria River Downs Airport,small_airport,Victoria River,AU,-16.402124,131.004974,0,0,0.25,0.25
VNR,Vanrook Station Airport,small_airport,,AU,-16.961532,141.95227,0,0,0.25,0.25
WAU,Wauchope Airport,small_airport,Wauchope,AU,-20.640614,134.215276,0,0,0.25,0.25
WLA,Wallal Downs Airport,small_airport,Eighty Mile Beach,AU,-19.7736,120.649002,0,0,0.25,0.25
WAV,Wave Hill Airport,small_airport,,AU,-17.393299102783203,131.1179962158203,0,0,0.25,0.25
WMB,Warrnambool Airport,small_airport,,AU,-38.2952995300293,142.44700622558594,0,0,0.25,0.25
SYU,Warraber Island Airport,small_airport,Sue Islet,AU,-10.20829963684082,142.8249969482422,0,0,0.25,0.25
WIO,Wilcannia Airport,small_airport,,AU,-31.522082,143.378358,0,0,0.25,0.25
WLC,Walcha Airport,small_airport,,AU,-31.009492,151.547442,0,0,0.25,0.25
WAZ,Warwick Airport,small_airport,,AU,-28.149401,151.942993,0,0,0.25,0.25
WND,Windarra Airport,small_airport,Laverton,AU,-28.48061,122.244415,0,0,0.25,0.25
WRN,Windarling Airport,small_airport,Windarling Mine,AU,-30.032277,119.386489,0,0,0.25,0.25
WON,Wondoola Airport,small_airport,Wondoola,AU,-18.5750007629,140.891998291,0,0,0.25,0.25
MFL,Mount Full Stop Airport,small_airport,Wando Vale,AU,-19.67,144.8852,0,0,0.25,0.25
GYB,Port Hedland/Wodgina Airport,small_airport,Wodgina,AU,-21.036568,118.642936,0,0,0.25,0.25
WIT,Wittenoom Airport,small_airport,,AU,-22.224992,118.353739,0,0,0.25,0.25
WPK,Wrotham Park Airport,small_airport,Wrotham Park,AU,-16.658915,143.999263,0,0,0.25,0.25
WDI,Wondai Airport,small_airport,,AU,-26.277392,151.861673,0,0,0.25,0.25
WLL,Wollogorang Airport,small_airport,,AU,-17.2199,137.93453,0,0,0.25,0.25
WLO,Waterloo Airport,small_airport,,AU,-16.6299991607666,129.32000732421875,0,0,0.25,0.25
WUD,Wudinna Airport,small_airport,,AU,-33.043301,135.447006,0,0,0.25,0.25
WEW,Wee Waa Airport,small_airport,,AU,-30.25830078125,149.4080047607422,0,0,0.25,0.25
WRW,Warrawagine Airport,small_airport,,AU,-20.8442001343,120.702003479,0,0,0.25,0.25
WWI,Woodie Woodie Airport,small_airport,Woodie Woodie,AU,-21.64551,121.191184,0,0,0.25,0.25
WYN,Wyndham Airport,small_airport,,AU,-15.5114,128.153,0,0,0.25,0.25
YLG,Yalgoo Airport,small_airport,Yalgoo,AU,-28.3553009033,116.683998108,0,0,0.25,0.25
OKR,Yorke Island Airport,small_airport,Yorke Island,AU,-9.752801,143.405673,0,0,0.25,0.25
KYF,Yeelirrie Airport,small_airport,,AU,-27.2770600378,120.095672607,0,0,0.25,0.25
XMY,Yam Island Airport,small_airport,Yam Island,AU,-9.899187,142.774265,0,0,0.25,0.25
YUE,Yuendumu Airport,small_airport,,AU,-22.2542,131.781998,0,0,0.25,0.25
ORR,Yorketown Airport,small_airport,,AU,-35.003564,137.619295,0,0,0.25,0.25
KYI,Yalata Mission Airport,small_airport,Yalata Mission,AU,-31.4706,131.824997,0,0,0.25,0.25
HIS,Hayman Island Resort Seaplane Base,seaplane_base,Hayman Island,AU,-20.059999465942383,148.88099670410156,0,0,0.0,0.0
LBH,Palm Beach Seaplane Base,seaplane_base,Sydney,AU,-33.5871,151.3234,0,0,0.0,0.0
RSE,Rose Bay Seaplane Base,seaplane_base,Sydney,AU,-33.869,151.262,0,0,0.0,0.0
KAH,"Melbourne Heliport, Batman Park",heliport,Melbourne,AU,-37.822272,144.956789,0,0,0.0,0.0
DDI,Daydream Island Helipad,heliport,Whitsundays,AU,-20.2603,148.8136,0,0,0.0,0.0
JFM,Fremantle Heliport,heliport,Fremantle,AU,-32.045149,115.733022,0,0,0.0,0.0
HAP,Happy Bay Helipad,heliport,Long Island,AU,-20.3358,148.8525,0,0,0.0,0.0
SOI,South Molle Island Helipad,heliport,South Molle Island Resort,AU,-20.2622,148.8399,0,0,0.0,0.0
STF,Stephens Island Seaplane Base,seaplane_base,Stephens Island,AU,-9.51,143.55,0,0,0.0,0.0
AUA,Queen Beatrix International Airport,large_airport,Oranjestad,AW,12.501056,-70.014281,25,25,2.0,4.234123340357588
GYD,Heydar Aliyev International Airport,large_airport,Baku,AZ,40.46749877929688,50.04669952392578,39,39,2.0,4.529517339963842
NAJ,Nakhchivan International Airport,large_airport,Nakhchivan,AZ,39.188801,45.458401,1,1,2.0,2.475300923812534
GNJ,Ganja International Airport,large_airport,Ganja,AZ,40.738692,46.320383,0,0,2.0,2.0
GBB,Gabala International Airport,medium_airport,Gabala,AZ,40.808617,47.725389,1,1,1.0,1.4753009238125339
LLK,Lankaran International Airport,small_airport,Lankaran,AZ,38.757919,48.807042,2,2,0.25,1.0033341408009897
ZXT,Zabrat Airport,medium_airport,Zabrat,AZ,40.494884,49.977065,0,0,1.0,1.0
ZTU,Zaqatala International Airport,medium_airport,Zaqatala,AZ,41.557823,46.669464,0,0,1.0,1.0
FZL,Fuzuli International Airport,small_airport,Fuzuli,AZ,39.594578,47.196128,0,0,0.25,0.25
ZZE,Zangilan International Airport,small_airport,Zangilan,AZ,39.11443,46.74392,0,0,0.25,0.25
YLV,Yevlakh Airport,small_airport,Yevlakh,AZ,40.631901,47.141899,0,0,0.25,0.25
SJJ,Sarajevo International Airport,large_airport,Sarajevo,BA,43.8246,18.331499,13,13,2.0,3.809639311736177
BNX,Banja Luka International Airport,large_airport,Mahovljani,BA,44.941399,17.297501,3,3,2.0,2.9506018476250677
TZL,Tuzla International Airport,large_airport,Dubrave Gornje,BA,44.459858,18.723627,3,3,2.0,2.9506018476250677
OMO,Mostar International Airport,large_airport,Mostar,BA,43.282489,17.846101,1,1,2.0,2.475300923812534
BGI,Grantley Adams International Airport,large_airport,Bridgetown,BB,13.074667,-59.491034,17,18,2.0,3.9974169829203055
DAC,Hazrat Shahjalal International Airport,large_airport,Dhaka,BD,23.843347,90.397783,33,34,2.0,4.426357941700583
CGP,Shah Amanat International Airport,large_airport,Chattogram (Chittagong),BD,22.249599,91.813301,10,10,2.0,3.644271044204597
ZYL,Osmany International Airport,large_airport,Sylhet,BD,24.963071,91.866903,1,4,2.0,2.737098275776578
SPD,Saidpur Airport,medium_airport,Saidpur,BD,25.759199,88.908897,2,1,1.0,1.6374869670557997
BZL,Barisal Airport,medium_airport,Barisal,BD,22.801001,90.301201,1,1,1.0,1.4753009238125339
CXB,Cox's Bazar Airport,medium_airport,Cox's Bazar,BD,21.457517,91.963263,1,1,1.0,1.4753009238125339
JSR,Jessore Airport,medium_airport,Jashore (Jessore),BD,23.1838,89.160797,1,1,1.0,1.4753009238125339
RJH,Shah Makhdum Airport,medium_airport,Rajshahi,BD,24.437201,88.616501,1,1,1.0,1.4753009238125339
IRD,Ishurdi Airport,medium_airport,Ishurdi,BD,24.1525,89.0494,0,0,1.0,1.0
CLA,Comilla Airport,small_airport,Comilla,BD,23.440133,91.188685,0,0,0.25,0.25
TKR,Thakurgaon Airport,small_airport,Thakurgaon,BD,26.016378,88.402092,0,0,0.25,0.25
ZHM,Shamshernagar Airport,small_airport,Shamshernagar,BD,24.398333,91.916944,0,0,0.25,0.25
BRU,Brussels Airport,large_airport,Zaventem,BE,50.901402,4.48444,146,147,2.0,5.42394797007267
CRL,Brussels South Charleroi Airport,large_airport,Charleroi,BE,50.461963,4.459562,83,83,2.0,5.038274376349701
OST,Ostend-Bruges International Airport,large_airport,Oostende,BE,51.1998,2.874673,1,1,2.0,2.475300923812534
LGG,Liège Airport,medium_airport,Grâce-Hollogne,BE,50.638574,5.443897,7,6,1.0,2.3877509449734524
ANR,Antwerp International Airport (Deurne),medium_airport,Antwerp,BE,51.190667,4.463153,1,1,1.0,1.4753009238125339
KJK,Flanders International Airport Kortrijk-Wevelgem,medium_airport,Wevelgem,BE,50.818878,3.209551,0,0,1.0,1.0
OBL,Oostmalle Airfield,small_airport,Zoersel,BE,51.269092,4.762428,0,0,0.25,0.25
GNE,Ghent/Industry Zone Heliport,heliport,Gent,BE,51.020551,3.730341,0,0,0.0,0.0
OUA,Ouagadougou Thomas Sankara International Airport,large_airport,Ouagadougou,BF,12.3532,-1.51242,15,14,2.0,3.8827641177822585
BOY,Bobo Dioulasso Airport,large_airport,Bobo Dioulasso,BF,11.1601,-4.33097,2,2,2.0,2.7533341408009893
XKY,Kaya Airport,small_airport,Kaya,BF,13.067,-1.1,0,0,0.25,0.25
OUG,Ouahigouya Airport,small_airport,Ouahigouya,BF,13.655287,-2.322067,0,0,0.25,0.25
XDJ,Djibo Airport,small_airport,Djibo,BF,14.125,-1.624722,0,0,0.25,0.25
XLU,Leo Airport,small_airport,Leo,BF,11.1,-2.1,0,0,0.25,0.25
PUP,Po Airport,small_airport,Po,BF,11.179139,-1.148472,0,0,0.25,0.25
XBO,Boulsa Airport,small_airport,Boulsa,BF,12.65,-0.567,0,0,0.25,0.25
XBG,Bogande Airport,small_airport,Bogande,BF,12.983,-0.167,0,0,0.25,0.25
DIP,Diapaga Airport,small_airport,Diapaga,BF,12.060324,1.784631,0,0,0.25,0.25
DOR,Dori Airport,small_airport,Dori,BF,14.021638,-0.068207,0,0,0.25,0.25
FNG,Fada N'gourma Airport,small_airport,Fada N'gourma,BF,12.033,0.35,0,0,0.25,0.25
XGG,Gorom-Gorom Airport,small_airport,Gorom-Gorom,BF,14.454174,-0.218644,0,0,0.25,0.25
XKA,Kantchari Airport,small_airport,Kantchari,BF,12.464046,1.492939,0,0,0.25,0.25
TMQ,Tambao Airport,small_airport,Tambao,BF,14.790874,0.039492,0,0,0.25,0.25
XPA,Pama Airport,small_airport,Pama,BF,11.25,0.7,0,0,0.25,0.25
ARL,Arly Airport,small_airport,Arly,BF,11.597,1.483,0,0,0.25,0.25
XSE,Sebba Airport,small_airport,Sebba,BF,13.45,0.517,0,0,0.25,0.25
TEG,Tenkodogo Airport,small_airport,Tenkodogo,BF,11.801149,-0.371377,0,0,0.25,0.25
XZA,Zabré Airport,small_airport,Zabré,BF,11.167,-0.617,0,0,0.25,0.25
BNR,Banfora Airport,small_airport,Banfora,BF,10.688861,-4.727726,0,0,0.25,0.25
DGU,Dedougou Airport,small_airport,Dedougou,BF,12.459,-3.49,0,0,0.25,0.25
XGA,Gaoua Airport,small_airport,Gaoua,BF,10.384059,-3.163454,0,0,0.25,0.25
XNU,Nouna Airport,small_airport,Nouna,BF,12.75,-3.867000103,0,0,0.25,0.25
TUQ,Tougan Airport,small_airport,Tougan,BF,13.059091,-3.077291,0,0,0.25,0.25
XDE,Diebougou Airport,small_airport,Diebougou,BF,10.95,-3.25,0,0,0.25,0.25
XAR,Aribinda Airport,small_airport,Aribinda,BF,14.2170000076,-0.883000016212,0,0,0.25,0.25
SOF,Sofia Airport,large_airport,Sofia,BG,42.696357,23.417671,41,41,2.0,4.562973452537166
BOJ,Burgas Airport,large_airport,Burgas,BG,42.569917,27.515173,11,11,2.0,3.7039359884260574
VAR,Varna Airport,large_airport,Varna,BG,43.232101,27.8251,9,9,2.0,3.5789154923387745
PDV,Plovdiv International Airport,large_airport,Plovdiv,BG,42.067799,24.8508,2,2,2.0,2.7533341408009893
JAM,Bezmer Air Base,medium_airport,Bezmer,BG,42.454899,26.3522,0,0,1.0,1.0
GOZ,Gorna Oryahovitsa Airport,medium_airport,Gorna Oryahovitsa,BG,43.151402,25.7129,0,0,1.0,1.0
ROU,Ruse Airport,small_airport,Shtraklevo,BG,43.694801,26.0567,0,0,0.25,0.25
BAH,Bahrain International Airport,large_airport,Manama,BH,26.267295,50.63764,40,40,2.0,4.5464494171686685
BJM,Bujumbura Melchior Ndadaye International Airport,large_airport,Bujumbura,BI,-3.32402,29.318501,3,4,2.0,3.014357148000556
GID,Gitega Airport,medium_airport,Gitega,BI,-3.417209,29.911308,0,0,1.0,1.0
KRE,Kirundo Airport,small_airport,Kirundo,BI,-2.544772,30.094575,0,0,0.25,0.25
COO,Cotonou Cadjehoun International Airport,large_airport,Cotonou,BJ,6.35723,2.38435,18,19,2.0,4.033699098396288
DJA,Djougou Airport,small_airport,Djougou,BJ,9.69208333333,1.63777777778,0,0,0.25,0.25
KDC,Kandi Airport,small_airport,Kandi,BJ,11.14479,2.940381,0,0,0.25,0.25
NAE,Natitingou Airport,small_airport,Natitingou,BJ,10.376965,1.360507,0,0,0.25,0.25
PKO,Parakou Airport,small_airport,Parakou,BJ,9.35768985748291,2.609679937362671,0,0,0.25,0.25
SVF,Savé Airport,small_airport,Savé,BJ,8.018170356750488,2.4645800590515137,0,0,0.25,0.25
SBH,St. Jean Airport,medium_airport,Gustavia,BL,17.904398,-62.843333,7,6,1.0,2.3877509449734524
BDA,L.F. Wade International Airport,large_airport,Hamilton,BM,32.363802,-64.67824,8,8,2.0,3.5066682816019794
BWN,Brunei International Airport,large_airport,Bandar Seri Begawan,BN,4.9442,114.928001,13,13,2.0,3.809639311736177
LPB,El Alto International Airport,large_airport,La Paz / El Alto,BO,-16.510272,-68.189416,16,16,2.0,3.942774864495691
VVI,Viru Viru International Airport,large_airport,Santa Cruz,BO,-17.6448,-63.135399,12,11,2.0,3.735953071495472
CBB,Jorge Wilsterman International Airport,large_airport,Cochabamba,BO,-17.421105,-66.177102,6,8,2.0,3.406142510289617
SRE,Alcantarí International Airport,large_airport,Sucre,BO,-19.246835,-65.149611,4,4,2.0,3.1036145685262397
ORU,Juan Mendoza International Airport,large_airport,Oruro,BO,-17.956151,-67.075829,2,1,2.0,2.6374869670557994
TDD,Teniente Av. Jorge Henrich Arauz Airport,medium_airport,Trinidad,BO,-14.8187,-64.917999,7,7,1.0,2.4259027714376016
TJA,Capitan Oriel Lea Plaza Airport,medium_airport,Tarija,BO,-21.5557,-64.701302,5,5,1.0,2.228635064613523
SRZ,El Trompillo Airport,medium_airport,Santa Cruz,BO,-17.8115997314,-63.1715011597,4,4,1.0,2.10361456852624
CIJ,Capitán Aníbal Arab Airport,medium_airport,Cobija,BO,-11.039109,-68.782774,2,3,1.0,1.8355290186443556
BYC,Yacuiba Airport,medium_airport,Yacuíba,BO,-21.960899353027344,-63.65169906616211,2,2,1.0,1.7533341408009897
GYA,Guayaramerín Airport,medium_airport,Guayaramerín,BO,-10.88856,-65.380955,1,1,1.0,1.4753009238125339
POI,Capitan Nicolas Rojas Airport,medium_airport,Potosí,BO,-19.543331,-65.723734,1,1,1.0,1.4753009238125339
RIB,Capitán Av. Selin Zeitun Lopez Airport,medium_airport,Riberalta,BO,-11.009355,-66.075468,1,1,1.0,1.4753009238125339
RBQ,Rurrenabaque Airport,small_airport,Rurrenabaque,BO,-14.4279,-67.496803,2,2,0.25,1.0033341408009897
BJO,Bermejo Airport,medium_airport,Bermejo,BO,-22.7733001709,-64.31289672850001,0,0,1.0,1.0
PSZ,Capitán Av. Salvador Ogaya G. airport,medium_airport,Puerto Suárez,BO,-18.975301,-57.820599,0,0,1.0,1.0
SBL,Santa Ana Del Yacuma Airport,medium_airport,Santa Ana del Yacuma,BO,-13.7622003555,-65.4352035522,0,0,1.0,1.0
VLM,Teniente Coronel Rafael Pabón Airport,medium_airport,Villamontes,BO,-21.2551994324,-63.4056015015,0,0,1.0,1.0
UYU,Uyuni Joya Andina Airport,small_airport,Quijarro,BO,-20.441304,-66.857553,1,1,0.25,0.725300923812534
BVL,Baures Airport,small_airport,Baures,BO,-13.654426,-63.704718,0,0,0.25,0.25
MHW,Monteagudo Airport,small_airport,El Bañado,BO,-19.827,-63.960999,0,0,0.25,0.25
APB,Apolo Airport,small_airport,Apolo,BO,-14.7356,-68.411903,0,0,0.25,0.25
ASC,Ascención de Guarayos Airport,small_airport,Ascensión de Guarayos,BO,-15.933365,-63.155575,0,0,0.25,0.25
CAM,Camiri Airport,small_airport,Camiri,BO,-20.00656,-63.527827,0,0,0.25,0.25
CEP,Concepción Airport,small_airport,Concepción,BO,-16.142688,-62.026595,0,0,0.25,0.25
CCA,Chimore Airport,small_airport,Chimore,BO,-16.976834,-65.145568,0,0,0.25,0.25
BVK,Huacaraje Airport,small_airport,Itenes,BO,-13.605556,-63.879444,0,0,0.25,0.25
SJS,San José De Chiquitos Airport,small_airport,San José de Chiquitos,BO,-17.830799,-60.743099,0,0,0.25,0.25
SJB,San Joaquín Airport,small_airport,San Joaquín,BO,-13.0528,-64.661697,0,0,0.25,0.25
SJV,San Javier Airport,small_airport,San Javier,BO,-16.2708,-62.470299,0,0,0.25,0.25
MGD,Magdalena Airport,small_airport,Magdalena,BO,-13.2607483767,-64.0607643127,0,0,0.25,0.25
PUR,Puerto Rico Airport,small_airport,Puerto Rico/Manuripi,BO,-11.107663,-67.551155,0,0,0.25,0.25
SRD,San Ramón Airport,small_airport,San Ramón / Mamoré,BO,-13.2639,-64.603897,0,0,0.25,0.25
RBO,Roboré Airport,small_airport,Roboré,BO,-18.328224,-59.765339,0,0,0.25,0.25
REY,Reyes Airport,small_airport,Reyes,BO,-14.3044,-67.353401,0,0,0.25,0.25
SRJ,Capitán Av. German Quiroga G. Airport,small_airport,San Borja,BO,-14.8592,-66.737503,0,0,0.25,0.25
SNG,Capitán Av. Juan Cochamanidis S. Airport,small_airport,San Ignacio de Velasco,BO,-16.38719,-60.962318,0,0,0.25,0.25
SNM,San Ignacio de Moxos Airport,small_airport,San Ignacio de Moxos,BO,-14.9658,-65.6338,0,0,0.25,0.25
SRB,Santa Rosa de Yacuma Airport,small_airport,Santa Rosa,BO,-14.073072,-66.787391,0,0,0.25,0.25
MQK,San Matías Airport,small_airport,San Matías,BO,-16.339199,-58.401901,0,0,0.25,0.25
VAH,Capitán Av. Vidal Villagomez Toledo Airport,small_airport,Vallegrande,BO,-18.4825,-64.099403,0,0,0.25,0.25
BON,Flamingo International Airport,large_airport,Kralendijk,BQ,12.131,-68.268501,6,6,2.0,3.3343383879236432
SAB,Juancho E. Yrausquin Airport,medium_airport,Zion's Hill,BQ,17.64533,-63.220514,1,2,1.0,1.5911480975577237
EUX,F. D. Roosevelt Airport,medium_airport,Oranjestad,BQ,17.4965,-62.979401,1,1,1.0,1.4753009238125339
GRU,São Paulo/Guarulhos–Governor André Franco Montoro International Airport,large_airport,São Paulo,BR,-23.431274,-46.469954,92,90,2.0,5.10185679912326
VCP,Viracopos International Airport,large_airport,Campinas,BR,-23.007404,-47.134502,51,51,2.0,4.709424264170122
GIG,Rio Galeão – Tom Jobim International Airport,large_airport,Rio De Janeiro,BR,-22.809999,-43.250557,49,50,2.0,4.688187954378209
BSB,Presidente Juscelino Kubitschek International Airport,large_airport,Brasília,BR,-15.869167,-47.920834,44,45,2.0,4.616562537762155
CNF,Tancredo Neves International Airport,large_airport,Belo Horizonte,BR,-19.63571,-43.966928,33,33,2.0,4.418075788308225
SSA,Deputado Luiz Eduardo Magalhães International Airport,large_airport,Salvador,BR,-12.908611,-38.322498,29,29,2.0,4.332249633139764
POA,Porto Alegre-Salgado Filho International Airport,large_airport,Porto Alegre,BR,-29.993984,-51.167482,27,26,2.0,4.274549480071318
CGH,Congonhas–Deputado Freitas Nobre Airport,large_airport,São Paulo,BR,-23.627657,-46.654601,26,26,2.0,4.260002422402969
CWB,Curitiba-Afonso Pena International Airport,large_airport,Curitiba,BR,-25.5285,-49.1758,23,24,2.0,4.190900339244378
FOR,Pinto Martins International Airport,large_airport,Fortaleza,BR,-3.775833,-38.532222,19,19,2.0,4.0542164161513075
BEL,Val de Cans/Júlio Cezar Ribeiro International Airport,large_airport,Belém,BR,-1.379279,-48.476207,18,18,2.0,4.0190438714284165
CGB,Várzea Grande–Marechal Rondon International Airport,large_airport,Cuiabá,BR,-15.6529,-56.116699,18,18,2.0,4.0190438714284165
MAO,Eduardo Gomes International Airport,large_airport,Manaus,BR,-3.03861,-60.049702,18,18,2.0,4.0190438714284165
REC,Recife/Guararapes - Gilberto Freyre International Airport,large_airport,Recife,BR,-8.12747,-34.922961,18,18,2.0,4.0190438714284165
SDU,Santos Dumont Airport,large_airport,Rio de Janeiro,BR,-22.910397,-43.16282,18,18,2.0,4.0190438714284165
FLN,Hercílio Luz International Airport,large_airport,Florianópolis,BR,-27.670279,-48.552502,12,12,2.0,3.758822416545054
GYN,Santa Genoveva International Airport,large_airport,Goiânia,BR,-16.632,-49.220699,11,11,2.0,3.7039359884260574
NAT,Rio Grande do Norte/São Gonçalo do Amarante–Governador Aluízio Alves International Airport,large_airport,Natal,BR,-5.769822,-35.36661,10,9,2.0,3.617039564260504
VIX,Eurico de Aguiar Salles International Airport,large_airport,Vitória,BR,-20.258,-40.285,9,9,2.0,3.5789154923387745
AJU,Aracaju - Santa Maria International Airport,large_airport,Aracaju,BR,-10.984129,-37.071789,8,8,2.0,3.5066682816019794
SLZ,Marechal Cunha Machado International Airport,large_airport,São Luís,BR,-2.586386,-44.235008,8,8,2.0,3.5066682816019794
IGU,Cataratas International Airport,large_airport,Foz do Iguaçu,BR,-25.594167,-54.489444,7,7,2.0,3.4259027714376016
MCZ,Zumbi dos Palmares International Airport,large_airport,Maceió,BR,-9.512559,-35.791839,7,7,2.0,3.4259027714376016
JPA,Presidente Castro Pinto International Airport,large_airport,João Pessoa,BR,-7.148691,-34.950554,6,6,2.0,3.3343383879236432
BPS,Porto Seguro International Airport,large_airport,Porto Seguro,BR,-16.438426,-39.080584,6,6,2.0,3.3343383879236432
NVT,Ministro Victor Konder International Airport,large_airport,Navegantes,BR,-26.879431,-48.650979,5,5,2.0,3.228635064613523
PVH,Governador Jorge Teixeira de Oliveira International Airport,large_airport,Porto Velho,BR,-8.708491,-63.902338,4,4,2.0,3.1036145685262397
RBR,Rio Branco-Plácido de Castro International Airport,large_airport,Rio Branco,BR,-9.869031,-67.893984,3,3,2.0,2.9506018476250677
RAO,Leite Lopes Airport,medium_airport,Ribeirão Preto,BR,-21.134314,-47.774053,12,12,1.0,2.758822416545054
PLU,Pampulha - Carlos Drummond de Andrade Airport,medium_airport,Belo Horizonte,BR,-19.85074,-43.950316,12,11,1.0,2.735953071495472
CGR,Campo Grande Airport,medium_airport,Campo Grande,BR,-20.469998,-54.673988,10,10,1.0,2.644271044204597
UDI,Ten. Cel. Aviador César Bombonato Airport,medium_airport,Uberlândia,BR,-18.883579,-48.225936,9,9,1.0,2.5789154923387745
MGF,Regional de Maringá - Sílvio Name Júnior Airport,medium_airport,Maringá,BR,-23.47606,-52.016187,8,8,1.0,2.5066682816019794
BVB,Atlas Brasil Cantanhede International Airport,large_airport,Boa Vista,BR,2.84615,-60.690648,1,1,2.0,2.475300923812534
STM,Santarém - Maestro Wilson Fonseca International Airport,medium_airport,Santarém,BR,-2.422423,-54.79306,8,6,1.0,2.434864159236006
IOS,Bahia - Jorge Amado Airport,medium_airport,Ilhéus,BR,-14.815929,-39.033458,7,7,1.0,2.4259027714376016
LDB,Governor José Richa Airport,medium_airport,Londrina,BR,-23.334375,-51.128365,7,7,1.0,2.4259027714376016
THE,Senador Petrônio Portela Airport,medium_airport,Teresina,BR,-5.06025,-42.823712,7,7,1.0,2.4259027714376016
MAB,João Correa da Rocha Airport,medium_airport,Marabá,BR,-5.36859,-49.138,8,4,1.0,2.338729234487088
SJP,Prof. Eribelto Manoel Reino State Airport,medium_airport,São José do Rio Preto,BR,-20.817113,-49.406963,6,6,1.0,2.3343383879236432
IMP,Prefeito Renato Moreira Airport,medium_airport,Imperatriz,BR,-5.53129,-47.459999,5,5,1.0,2.228635064613523
TFF,Tefé Airport,medium_airport,Tefé,BR,-3.38294,-64.724098,5,5,1.0,2.228635064613523
VDC,Glauber de Andrade Rocha Airport,medium_airport,Vitória da Conquista,BR,-14.907885,-40.914804,4,4,1.0,2.10361456852624
XAP,Serafin Enoss Bertaso Airport,medium_airport,Chapecó,BR,-27.134199,-52.656601,4,4,1.0,2.10361456852624
JOI,Lauro Carneiro de Loyola Airport,medium_airport,Joinville,BR,-26.224501,-48.797401,4,4,1.0,2.10361456852624
PFB,Lauro Kurtz Airport,medium_airport,Passo Fundo,BR,-28.243976,-52.32777,4,4,1.0,2.10361456852624
PNZ,Senador Nilo Coelho Airport,medium_airport,Petrolina,BR,-9.362422,-40.569098,4,4,1.0,2.10361456852624
UBA,Mário de Almeida Franco Airport,medium_airport,Uberaba,BR,-19.765036,-47.964805,4,4,1.0,2.10361456852624
CKS,Carajás Airport,medium_airport,Parauapebas,BR,-6.117841,-50.003372,3,4,1.0,2.014357148000556
JTC,Bauru/Arealva–Moussa Nakhal Tobias State Airport,medium_airport,Bauru,BR,-22.160755,-49.070325,3,3,1.0,1.950601847625068
CAC,Coronel Adalberto Mendes da Silva Airport,medium_airport,Cascavel,BR,-25.000323,-53.501208,3,3,1.0,1.950601847625068
CAW,Bartolomeu Lisandro Airport,medium_airport,Campos dos Goytacazes,BR,-21.698299,-41.301701,3,3,1.0,1.950601847625068
CXJ,Hugo Cantergiani Regional Airport,medium_airport,Caxias Do Sul,BR,-29.197183,-51.187647,3,3,1.0,1.950601847625068
IPN,Usiminas Airport,medium_airport,Ipatinga,BR,-19.470699,-42.487598,3,3,1.0,1.950601847625068
MEA,Macaé Benedito Lacerda Airport,medium_airport,Macaé,BR,-22.343,-41.765999,3,3,1.0,1.950601847625068
PMW,Brigadeiro Lysias Rodrigues Airport,medium_airport,Palmas,BR,-10.2915,-48.356998,3,3,1.0,1.950601847625068
RIA,Santa Maria Airport,medium_airport,Santa Maria,BR,-29.711399,-53.688202,3,3,1.0,1.950601847625068
AUX,Araguaína Airport,medium_airport,Araguaína,BR,-7.22787,-48.240501,3,3,1.0,1.950601847625068
ATM,Altamira Interstate Airport,medium_airport,Altamira,BR,-3.253144,-52.253938,3,2,1.0,1.8684069697817018
MEU,Monte Dourado - Serra do Areão Airport,medium_airport,Almeirim,BR,-0.889839,-52.6022,3,2,1.0,1.8684069697817018
ARU,Araçatuba Airport,medium_airport,Araçatuba,BR,-21.141479,-50.424575,2,2,1.0,1.7533341408009897
CCM,Forquilhinha - Criciúma  Airport,medium_airport,Criciúma,BR,-28.725743,-49.424475,2,2,1.0,1.7533341408009897
PPB,Presidente Prudente Airport,medium_airport,Presidente Prudente,BR,-22.1751,-51.424599,2,2,1.0,1.7533341408009897
FEN,Fernando de Noronha Airport,medium_airport,Fernando de Noronha,BR,-3.854534,-32.423017,2,2,1.0,1.7533341408009897
CPV,Presidente João Suassuna Airport,medium_airport,Campina Grande,BR,-7.269662,-35.896057,2,2,1.0,1.7533341408009897
MOC,Mário Ribeiro Airport,medium_airport,Montes Claros,BR,-16.706919,-43.818901,2,2,1.0,1.7533341408009897
MII,Frank Miloye Milenkowichi–Marília State Airport,medium_airport,Marília,BR,-22.196899,-49.926485,2,2,1.0,1.7533341408009897
GEL,Santo Ângelo Airport,medium_airport,Santo Ângelo,BR,-28.282503,-54.169623,2,2,1.0,1.7533341408009897
PHB,Parnaíba - Prefeito Doutor João Silva Filho International Airport,medium_airport,Parnaíba,BR,-2.89375,-41.731998,2,2,1.0,1.7533341408009897
PET,João Simões Lopes Neto International Airport,medium_airport,Pelotas,BR,-31.717189,-52.327796,2,2,1.0,1.7533341408009897
SJK,Professor Urbano Ernesto Stumpf Airport,medium_airport,São José Dos Campos,BR,-23.2292,-45.8615,2,2,1.0,1.7533341408009897
IZA,Presidente Itamar Franco Airport,medium_airport,Juiz de Fora,BR,-21.513086,-43.173069,2,2,1.0,1.7533341408009897
JDO,Orlando Bezerra de Menezes Airport,small_airport,Juazeiro do Norte,BR,-7.21932,-39.269096,5,5,0.25,1.4786350646135236
CDJ,Conceição do Araguaia Airport,medium_airport,Conceição do Araguaia,BR,-8.34835,-49.301498,1,1,1.0,1.4753009238125339
AQA,Araraquara Airport,medium_airport,Araraquara,BR,-21.812,-48.132999,1,1,1.0,1.4753009238125339
AFL,Piloto Osvaldo Marques Dias Airport,medium_airport,Alta Floresta,BR,-9.866389,-56.106298,1,1,1.0,1.4753009238125339
AAX,Romeu Zema Airport,medium_airport,Araxá,BR,-19.5632,-46.9604,1,1,1.0,1.4753009238125339
CMG,Corumbá International Airport,medium_airport,Corumbá,BR,-19.01193,-57.672772,1,1,1.0,1.4753009238125339
CZS,Cruzeiro do Sul Airport,medium_airport,Cruzeiro Do Sul,BR,-7.59991,-72.769501,1,1,1.0,1.4753009238125339
GVR,Coronel Altino Machado Airport,medium_airport,Governador Valadares,BR,-18.895882,-41.982869,1,1,1.0,1.4753009238125339
ITB,Itaituba Airport,medium_airport,Itaituba,BR,-4.242131,-56.000651,1,1,1.0,1.4753009238125339
LAZ,Bom Jesus da Lapa Airport,medium_airport,Bom Jesus da Lapa,BR,-13.2621,-43.4081,1,1,1.0,1.4753009238125339
MQH,Minaçu Airport,medium_airport,Minaçu,BR,-13.5491,-48.195301,1,1,1.0,1.4753009238125339
MCP,Macapá - Alberto Alcolumbre International Airport,medium_airport,Macapá,BR,0.050664,-51.072201,1,1,1.0,1.4753009238125339
ROO,Maestro Marinho Franco Airport,medium_airport,Rondonópolis,BR,-16.584292,-54.724803,1,1,1.0,1.4753009238125339
TMT,Trombetas Airport,medium_airport,Oriximiná,BR,-1.4896,-56.396801,1,1,1.0,1.4753009238125339
TBT,Tabatinga International Airport,medium_airport,Tabatinga,BR,-4.25567,-69.935799,1,1,1.0,1.4753009238125339
TUR,Tucuruí Airport,medium_airport,Tucuruí,BR,-3.78601,-49.720299,1,1,1.0,1.4753009238125339
SJL,São Gabriel da Cachoeira Airport,medium_airport,São Gabriel da Cachoeira,BR,-0.14835,-66.9855,1,1,1.0,1.4753009238125339
PAV,Paulo Afonso Airport,medium_airport,Paulo Afonso,BR,-9.40088,-38.250599,1,1,1.0,1.4753009238125339
URG,Rubem Berta Airport,medium_airport,Uruguaiana,BR,-29.7822,-57.0382,1,1,1.0,1.4753009238125339
BVH,Brigadeiro Camarão Airport,medium_airport,Vilhena,BR,-12.6944,-60.098301,1,1,1.0,1.4753009238125339
CFB,Cabo Frio Airport,small_airport,Cabo Frio,BR,-22.921485,-42.071874,3,3,0.25,1.2006018476250677
DOU,Dourados Airport,small_airport,Dourados,BR,-22.2019,-54.926601,3,3,0.25,1.2006018476250677
JCB,Santa Terezinha Airport,small_airport,Joaçaba,BR,-27.171514,-51.553327,3,3,0.25,1.2006018476250677
ERM,Erechim Airport,small_airport,Erechim,BR,-27.663614,-52.271489,2,3,0.25,1.0855290186443556
CFC,Doctor Carlos Alberto da Costa Neves Airport,small_airport,Caçador,BR,-26.787423,-50.939942,2,2,0.25,1.0033341408009897
CLV,Nelson Ribeiro Guimarães Airport,small_airport,Caldas Novas,BR,-17.725096,-48.606324,2,2,0.25,1.0033341408009897
OPS,Presidente João Batista Figueiredo Airport,small_airport,Sinop,BR,-11.885001,-55.586109,2,2,0.25,1.0033341408009897
BRA,Dom Ricardo Weberberger Airport,small_airport,Barreiras,BR,-12.0789,-45.008999,2,2,0.25,1.0033341408009897
ARX,Aracati Dragão do Mar Regional Airport,medium_airport,Aracati,BR,-4.568896,-37.805135,0,0,1.0,1.0
BGX,Comandante Gustavo Kraemer Airport,medium_airport,Bagé,BR,-31.390499,-54.112202,0,0,1.0,1.0
BFH,Bacacheri Airport,medium_airport,Curitiba,BR,-25.4051,-49.231998,0,0,1.0,1.0
BAT,Chafei Amsei Airport,medium_airport,Barretos,BR,-20.584631,-48.594125,0,0,1.0,1.0
BPG,Barra do Garças Airport,medium_airport,Barra do Garças,BR,-15.861417,-52.389008,0,0,1.0,1.0
BZC,Umberto Modiano Airport,medium_airport,Cabo Frio,BR,-22.770881,-41.96308,0,0,1.0,1.0
CLN,Brig. Lysias Augusto Rodrigues Airport,medium_airport,Carolina,BR,-7.32044,-47.458698,0,0,1.0,1.0
QNS,Canoas Air Force Base,medium_airport,Porto Alegre,BR,-29.945928,-51.144413,0,0,1.0,1.0
CRQ,Caravelas Airport,medium_airport,Caravelas,BR,-17.6523,-39.253101,0,0,1.0,1.0
JCR,Jacareacanga Airport,medium_airport,Jacareacanga,BR,-6.23316,-57.776901,0,0,1.0,1.0
GJM,Guajará-Mirim Airport,medium_airport,Guajará-Mirim,BR,-10.78641,-65.28486,0,0,1.0,1.0
GUJ,Edu Chaves Field,medium_airport,Guaratinguetá,BR,-22.791599,-45.2048,0,0,1.0,1.0
ITA,Itacoatiara Airport,medium_airport,Itacoatiara,BR,-3.126539,-58.481668,0,0,1.0,1.0
